[
    {
        "type":"medium_airport",
        "name":"Anaa Airport",
        "latitude_deg":-17.3526000977,
        "longitude_deg":-145.5099945068,
        "elevation_ft":10.0,
        "continent":"OC",
        "iso_country":"PF",
        "gps_code":"NTGA",
        "iata_code":"AAA"
    },
    {
        "type":"small_airport",
        "name":"Arrabury Airport",
        "latitude_deg":-26.693023,
        "longitude_deg":141.047771,
        "elevation_ft":334.0,
        "continent":"OC",
        "iso_country":"AU",
        "gps_code":"YARY",
        "iata_code":"AAB"
    },
    {
        "type":"medium_airport",
        "name":"El Arish International Airport",
        "latitude_deg":31.073299408,
        "longitude_deg":33.8358001709,
        "elevation_ft":121.0,
        "continent":"AS",
        "iso_country":"EG",
        "gps_code":"HEAR",
        "iata_code":"AAC"
    },
    {
        "type":"small_airport",
        "name":"Adado Airport",
        "latitude_deg":6.095802,
        "longitude_deg":46.6375,
        "elevation_ft":1001.0,
        "continent":"AF",
        "iso_country":"SO",
        "gps_code":null,
        "iata_code":"AAD"
    },
    {
        "type":"medium_airport",
        "name":"Rabah Bitat Airport",
        "latitude_deg":36.822201,
        "longitude_deg":7.809174,
        "elevation_ft":16.0,
        "continent":"AF",
        "iso_country":"DZ",
        "gps_code":"DABB",
        "iata_code":"AAE"
    },
    {
        "type":"small_airport",
        "name":"Apalachicola Regional Airport",
        "latitude_deg":29.72750092,
        "longitude_deg":-85.02749634,
        "elevation_ft":20.0,
        "continent":null,
        "iso_country":"US",
        "gps_code":"KAAF",
        "iata_code":"AAF"
    },
    {
        "type":"small_airport",
        "name":"Avelino Vieira Airport",
        "latitude_deg":-24.103901,
        "longitude_deg":-49.789101,
        "elevation_ft":2641.0,
        "continent":"SA",
        "iso_country":"BR",
        "gps_code":"SSYA",
        "iata_code":"AAG"
    },
    {
        "type":"small_airport",
        "name":"Aachen-Merzbr\u00fcck Airport",
        "latitude_deg":50.823055,
        "longitude_deg":6.186389,
        "elevation_ft":623.0,
        "continent":"EU",
        "iso_country":"DE",
        "gps_code":"EDKA",
        "iata_code":"AAH"
    },
    {
        "type":"small_airport",
        "name":"Arraias Airport",
        "latitude_deg":-13.025154,
        "longitude_deg":-46.884107,
        "elevation_ft":1923.0,
        "continent":"SA",
        "iso_country":"BR",
        "gps_code":"SWRA",
        "iata_code":"AAI"
    },
    {
        "type":"small_airport",
        "name":"Cayana Airstrip",
        "latitude_deg":3.898681,
        "longitude_deg":-55.577907,
        "elevation_ft":360.0,
        "continent":"SA",
        "iso_country":"SR",
        "gps_code":"SMCA",
        "iata_code":"AAJ"
    },
    {
        "type":"small_airport",
        "name":"Aranuka Airport",
        "latitude_deg":0.185278,
        "longitude_deg":173.636993,
        "elevation_ft":6.0,
        "continent":"OC",
        "iso_country":"KI",
        "gps_code":"NGUK",
        "iata_code":"AAK"
    },
    {
        "type":"large_airport",
        "name":"Aalborg Airport",
        "latitude_deg":57.0927589138,
        "longitude_deg":9.8492431641,
        "elevation_ft":10.0,
        "continent":"EU",
        "iso_country":"DK",
        "gps_code":"EKYT",
        "iata_code":"AAL"
    },
    {
        "type":"medium_airport",
        "name":"Malamala Airport",
        "latitude_deg":-24.8180999756,
        "longitude_deg":31.5445995331,
        "elevation_ft":1124.0,
        "continent":"AF",
        "iso_country":"ZA",
        "gps_code":"FAMD",
        "iata_code":"AAM"
    },
    {
        "type":"medium_airport",
        "name":"Al Ain International Airport",
        "latitude_deg":24.2616996765,
        "longitude_deg":55.6091995239,
        "elevation_ft":869.0,
        "continent":"AS",
        "iso_country":"AE",
        "gps_code":"OMAL",
        "iata_code":"AAN"
    },
    {
        "type":"medium_airport",
        "name":"Anaco Airport",
        "latitude_deg":9.4302253723,
        "longitude_deg":-64.4707260132,
        "elevation_ft":721.0,
        "continent":"SA",
        "iso_country":"VE",
        "gps_code":"SVAN",
        "iata_code":"AAO"
    },
    {
        "type":"large_airport",
        "name":"Aji Pangeran Tumenggung Pranoto International Airport",
        "latitude_deg":-0.374448,
        "longitude_deg":117.249392,
        "elevation_ft":73.0,
        "continent":"AS",
        "iso_country":"ID",
        "gps_code":"WALS",
        "iata_code":"AAP"
    },
    {
        "type":"medium_airport",
        "name":"Anapa Vityazevo Airport",
        "latitude_deg":45.0021018982,
        "longitude_deg":37.3473014832,
        "elevation_ft":174.0,
        "continent":"EU",
        "iso_country":"RU",
        "gps_code":"URKA",
        "iata_code":"AAQ"
    },
    {
        "type":"medium_airport",
        "name":"Aarhus Airport",
        "latitude_deg":56.2999992371,
        "longitude_deg":10.6190004349,
        "elevation_ft":82.0,
        "continent":"EU",
        "iso_country":"DK",
        "gps_code":"EKAH",
        "iata_code":"AAR"
    },
    {
        "type":"small_airport",
        "name":"Apalapsili Airport",
        "latitude_deg":-3.8832,
        "longitude_deg":139.3108,
        "elevation_ft":3100.0,
        "continent":"AS",
        "iso_country":"ID",
        "gps_code":null,
        "iata_code":"AAS"
    },
    {
        "type":"medium_airport",
        "name":"Altay Airport",
        "latitude_deg":47.749886,
        "longitude_deg":88.085808,
        "elevation_ft":2460.0,
        "continent":"AS",
        "iso_country":"CN",
        "gps_code":"ZWAT",
        "iata_code":"AAT"
    },
    {
        "type":"small_airport",
        "name":"Asau Airport",
        "latitude_deg":-13.505132,
        "longitude_deg":-172.627888,
        "elevation_ft":null,
        "continent":"OC",
        "iso_country":"WS",
        "gps_code":"NSAU",
        "iata_code":"AAU"
    },
    {
        "type":"medium_airport",
        "name":"Allah Valley Airport",
        "latitude_deg":6.3668198586,
        "longitude_deg":124.7509994507,
        "elevation_ft":659.0,
        "continent":"AS",
        "iso_country":"PH",
        "gps_code":"RPMA",
        "iata_code":"AAV"
    },
    {
        "type":"small_airport",
        "name":"Romeu Zema Airport",
        "latitude_deg":-19.5631999969,
        "longitude_deg":-46.9603996277,
        "elevation_ft":3276.0,
        "continent":"SA",
        "iso_country":"BR",
        "gps_code":"SBAX",
        "iata_code":"AAX"
    },
    {
        "type":"medium_airport",
        "name":"Al Ghaidah International Airport",
        "latitude_deg":16.1916999817,
        "longitude_deg":52.1749992371,
        "elevation_ft":134.0,
        "continent":"AS",
        "iso_country":"YE",
        "gps_code":"OYGD",
        "iata_code":"AAY"
    },
    {
        "type":"small_airport",
        "name":"Quezaltenango Airport",
        "latitude_deg":14.8656,
        "longitude_deg":-91.501999,
        "elevation_ft":7779.0,
        "continent":null,
        "iso_country":"GT",
        "gps_code":"MGQZ",
        "iata_code":"AAZ"
    },
    {
        "type":"medium_airport",
        "name":"Abakan International Airport",
        "latitude_deg":53.740002,
        "longitude_deg":91.385002,
        "elevation_ft":831.0,
        "continent":"EU",
        "iso_country":"RU",
        "gps_code":"UNAA",
        "iata_code":"ABA"
    },
    {
        "type":"medium_airport",
        "name":"Asaba International Airport",
        "latitude_deg":6.204167,
        "longitude_deg":6.665278,
        "elevation_ft":305.0,
        "continent":"AF",
        "iso_country":"NG",
        "gps_code":"DNAS",
        "iata_code":"ABB"
    },
    {
        "type":"medium_airport",
        "name":"Albacete Airport \/ Los Llanos Air Base",
        "latitude_deg":38.948502,
        "longitude_deg":-1.86352,
        "elevation_ft":2302.0,
        "continent":"EU",
        "iso_country":"ES",
        "gps_code":"LEAB",
        "iata_code":"ABC"
    },
    {
        "type":"medium_airport",
        "name":"Abadan Airport",
        "latitude_deg":30.367887,
        "longitude_deg":48.230075,
        "elevation_ft":10.0,
        "continent":"AS",
        "iso_country":"IR",
        "gps_code":"OIAA",
        "iata_code":"ABD"
    },
    {
        "type":"medium_airport",
        "name":"Lehigh Valley International Airport",
        "latitude_deg":40.651773,
        "longitude_deg":-75.442797,
        "elevation_ft":393.0,
        "continent":null,
        "iso_country":"US",
        "gps_code":"KABE",
        "iata_code":"ABE"
    },
    {
        "type":"small_airport",
        "name":"Abaiang Airport",
        "latitude_deg":1.798609972,
        "longitude_deg":173.0410003662,
        "elevation_ft":null,
        "continent":"OC",
        "iso_country":"KI",
        "gps_code":"NGAB",
        "iata_code":"ABF"
    },
    {
        "type":"small_airport",
        "name":"Abingdon Downs Airport",
        "latitude_deg":-17.6166992188,
        "longitude_deg":143.167007446,
        "elevation_ft":null,
        "continent":"OC",
        "iso_country":"AU",
        "gps_code":"YABI",
        "iata_code":"ABG"
    },
    {
        "type":"medium_airport",
        "name":"Alpha Airport",
        "latitude_deg":-23.646099,
        "longitude_deg":146.584,
        "elevation_ft":1255.0,
        "continent":"OC",
        "iso_country":"AU",
        "gps_code":"YAPH",
        "iata_code":"ABH"
    },
    {
        "type":"medium_airport",
        "name":"Abilene Regional Airport",
        "latitude_deg":32.4113006592,
        "longitude_deg":-99.6819000244,
        "elevation_ft":1791.0,
        "continent":null,
        "iso_country":"US",
        "gps_code":"KABI",
        "iata_code":"ABI"
    },
    {
        "type":"small_airport",
        "name":"Assouind\u00e9 Airport",
        "latitude_deg":5.17544,
        "longitude_deg":-3.47049,
        "elevation_ft":null,
        "continent":"AF",
        "iso_country":"CI",
        "gps_code":null,
        "iata_code":"ABJ"
    },
    {
        "type":"medium_airport",
        "name":"F\u00e9lix-Houphou\u00ebt-Boigny International Airport",
        "latitude_deg":5.26139,
        "longitude_deg":-3.92629,
        "elevation_ft":21.0,
        "continent":"AF",
        "iso_country":"CI",
        "gps_code":"DIAP",
        "iata_code":"ABJ"
    },
    {
        "type":"small_airport",
        "name":"Kabri Dehar Airport",
        "latitude_deg":6.734,
        "longitude_deg":44.252998,
        "elevation_ft":1800.0,
        "continent":"AF",
        "iso_country":"ET",
        "gps_code":"HAKD",
        "iata_code":"ABK"
    },
    {
        "type":"medium_airport",
        "name":"Ambler Airport",
        "latitude_deg":67.1063,
        "longitude_deg":-157.856989,
        "elevation_ft":334.0,
        "continent":null,
        "iso_country":"US",
        "gps_code":"PAFM",
        "iata_code":"ABL"
    },
    {
        "type":"small_airport",
        "name":"Northern Peninsula Airport",
        "latitude_deg":-10.9508,
        "longitude_deg":142.459,
        "elevation_ft":34.0,
        "continent":"OC",
        "iso_country":"AU",
        "gps_code":"YNPE",
        "iata_code":"ABM"
    },
    {
        "type":"small_airport",
        "name":"Albina Airport",
        "latitude_deg":5.512720108,
        "longitude_deg":-54.0500984192,
        "elevation_ft":19.0,
        "continent":"SA",
        "iso_country":"SR",
        "gps_code":"SMBN",
        "iata_code":"ABN"
    },
    {
        "type":"small_airport",
        "name":"Aboisso Airport",
        "latitude_deg":5.461944,
        "longitude_deg":-3.234722,
        "elevation_ft":95.0,
        "continent":"AF",
        "iso_country":"CI",
        "gps_code":"DIAO",
        "iata_code":"ABO"
    },
    {
        "type":"small_airport",
        "name":"Atkamba Airport",
        "latitude_deg":-6.0655555556,
        "longitude_deg":141.095277778,
        "elevation_ft":150.0,
        "continent":"OC",
        "iso_country":"PG",
        "gps_code":null,
        "iata_code":"ABP"
    },
    {
        "type":"large_airport",
        "name":"Albuquerque International Sunport \/ Kirtland Air Force Base",
        "latitude_deg":35.040199,
        "longitude_deg":-106.609001,
        "elevation_ft":5355.0,
        "continent":null,
        "iso_country":"US",
        "gps_code":"KABQ",
        "iata_code":"ABQ"
    },
    {
        "type":"medium_airport",
        "name":"Aberdeen Regional Airport",
        "latitude_deg":45.4491004944,
        "longitude_deg":-98.4217987061,
        "elevation_ft":1302.0,
        "continent":null,
        "iso_country":"US",
        "gps_code":"KABR",
        "iata_code":"ABR"
    },
    {
        "type":"medium_airport",
        "name":"Abu Simbel Airport",
        "latitude_deg":22.3759994507,
        "longitude_deg":31.611700058,
        "elevation_ft":616.0,
        "continent":"AF",
        "iso_country":"EG",
        "gps_code":"HEBL",
        "iata_code":"ABS"
    },
    {
        "type":"medium_airport",
        "name":"Al Baha Airport",
        "latitude_deg":20.2961006165,
        "longitude_deg":41.6343002319,
        "elevation_ft":5486.0,
        "continent":"AS",
        "iso_country":"SA",
        "gps_code":"OEBA",
        "iata_code":"ABT"
    },
    {
        "type":"small_airport",
        "name":"Haliwen Airport",
        "latitude_deg":-9.0730495453,
        "longitude_deg":124.904998779,
        "elevation_ft":1027.0,
        "continent":"AS",
        "iso_country":"ID",
        "gps_code":"WATA",
        "iata_code":"ABU"
    },
    {
        "type":"large_airport",
        "name":"Nnamdi Azikiwe International Airport",
        "latitude_deg":9.0067901611,
        "longitude_deg":7.2631697655,
        "elevation_ft":1123.0,
        "continent":"AF",
        "iso_country":"NG",
        "gps_code":"DNAA",
        "iata_code":"ABV"
    },
    {
        "type":"medium_airport",
        "name":"Albury Airport",
        "latitude_deg":-36.0677986145,
        "longitude_deg":146.9579925537,
        "elevation_ft":539.0,
        "continent":"OC",
        "iso_country":"AU",
        "gps_code":"YMAY",
        "iata_code":"ABX"
    },
    {
        "type":"medium_airport",
        "name":"Southwest Georgia Regional Airport",
        "latitude_deg":31.5354995728,
        "longitude_deg":-84.1945037842,
        "elevation_ft":197.0,
        "continent":null,
        "iso_country":"US",
        "gps_code":"KABY",
        "iata_code":"ABY"
    },
    {
        "type":"large_airport",
        "name":"Aberdeen Dyce Airport",
        "latitude_deg":57.2019004822,
        "longitude_deg":-2.1977798939,
        "elevation_ft":215.0,
        "continent":"EU",
        "iso_country":"GB",
        "gps_code":"EGPD",
        "iata_code":"ABZ"
    },
    {
        "type":"large_airport",
        "name":"General Juan N Alvarez International Airport",
        "latitude_deg":16.7570991516,
        "longitude_deg":-99.7539978027,
        "elevation_ft":16.0,
        "continent":null,
        "iso_country":"MX",
        "gps_code":"MMAA",
        "iata_code":"ACA"
    },
    {
        "type":"small_airport",
        "name":"Antrim County Airport",
        "latitude_deg":44.988602,
        "longitude_deg":-85.198402,
        "elevation_ft":623.0,
        "continent":null,
        "iso_country":"US",
        "gps_code":"KACB",
        "iata_code":"ACB"
    },
    {
        "type":"large_airport",
        "name":"Kotoka International Airport",
        "latitude_deg":5.6051898003,
        "longitude_deg":-0.1667860001,
        "elevation_ft":205.0,
        "continent":"AF",
        "iso_country":"GH",
        "gps_code":"DGAA",
        "iata_code":"ACC"
    },
    {
        "type":"small_airport",
        "name":"Alcides Fern\u00e1ndez Airport",
        "latitude_deg":8.51667,
        "longitude_deg":-77.3,
        "elevation_ft":50.0,
        "continent":"SA",
        "iso_country":"CO",
        "gps_code":"SKAD",
        "iata_code":"ACD"
    },
    {
        "type":"medium_airport",
        "name":"Lanzarote Airport",
        "latitude_deg":28.945499,
        "longitude_deg":-13.6052,
        "elevation_ft":46.0,
        "continent":"EU",
        "iso_country":"ES",
        "gps_code":"GCRR",
        "iata_code":"ACE"
    },
    {
        "type":"small_airport",
        "name":"Brisbane Archerfield Airport",
        "latitude_deg":-27.5702991486,
        "longitude_deg":153.007995605,
        "elevation_ft":63.0,
        "continent":"OC",
        "iso_country":"AU",
        "gps_code":"YBAF",
        "iata_code":"ACF"
    },
    {
        "type":"medium_airport",
        "name":"St Gallen Altenrhein Airport",
        "latitude_deg":47.4850006104,
        "longitude_deg":9.5607700348,
        "elevation_ft":1306.0,
        "continent":"EU",
        "iso_country":"CH",
        "gps_code":"LSZR",
        "iata_code":"ACH"
    },
    {
        "type":"medium_airport",
        "name":"Alderney Airport",
        "latitude_deg":49.706104,
        "longitude_deg":-2.21472,
        "elevation_ft":290.0,
        "continent":"EU",
        "iso_country":"GG",
        "gps_code":"EGJA",
        "iata_code":"ACI"
    },
    {
        "type":"medium_airport",
        "name":"Anuradhapura Air Force Base",
        "latitude_deg":8.30148983,
        "longitude_deg":80.4279022217,
        "elevation_ft":324.0,
        "continent":"AS",
        "iso_country":"LK",
        "gps_code":"VCCA",
        "iata_code":"ACJ"
    },
    {
        "type":"medium_airport",
        "name":"Nantucket Memorial Airport",
        "latitude_deg":41.25310135,
        "longitude_deg":-70.06020355,
        "elevation_ft":47.0,
        "continent":null,
        "iso_country":"US",
        "gps_code":"KACK",
        "iata_code":"ACK"
    },
    {
        "type":"small_airport",
        "name":"Aguaclara Airport",
        "latitude_deg":4.753611,
        "longitude_deg":-73.002778,
        "elevation_ft":1090.0,
        "continent":"SA",
        "iso_country":"CO",
        "gps_code":null,
        "iata_code":"ACL"
    },
    {
        "type":"small_airport",
        "name":"Arica Airport",
        "latitude_deg":-2.145437336,
        "longitude_deg":-71.7580604553,
        "elevation_ft":316.0,
        "continent":"SA",
        "iso_country":"CO",
        "gps_code":null,
        "iata_code":"ACM"
    },
    {
        "type":"small_airport",
        "name":"Ciudad Acu\u00f1a New International Airport",
        "latitude_deg":29.332899,
        "longitude_deg":-101.098998,
        "elevation_ft":1410.0,
        "continent":null,
        "iso_country":"MX",
        "gps_code":"MMCC",
        "iata_code":"ACN"
    },
    {
        "type":"small_airport",
        "name":"Sahand Airport",
        "latitude_deg":37.3479995728,
        "longitude_deg":46.1278991699,
        "elevation_ft":4396.0,
        "continent":"AS",
        "iso_country":"IR",
        "gps_code":"OITM",
        "iata_code":"ACP"
    },
    {
        "type":"small_airport",
        "name":"Araracuara Airport",
        "latitude_deg":-0.5833,
        "longitude_deg":-72.4083,
        "elevation_ft":1250.0,
        "continent":"SA",
        "iso_country":"CO",
        "gps_code":"SKAC",
        "iata_code":"ACR"
    },
    {
        "type":"medium_airport",
        "name":"Achinsk Airport",
        "latitude_deg":56.269185,
        "longitude_deg":90.57511,
        "elevation_ft":1033.0,
        "continent":"EU",
        "iso_country":"RU",
        "gps_code":"UNKS",
        "iata_code":"ACS"
    },
    {
        "type":"medium_airport",
        "name":"Waco Regional Airport",
        "latitude_deg":31.6112995148,
        "longitude_deg":-97.2304992676,
        "elevation_ft":516.0,
        "continent":null,
        "iso_country":"US",
        "gps_code":"KACT",
        "iata_code":"ACT"
    },
    {
        "type":"small_airport",
        "name":"Achutupu Airport",
        "latitude_deg":9.188481,
        "longitude_deg":-77.994153,
        "elevation_ft":10.0,
        "continent":null,
        "iso_country":"PA",
        "gps_code":null,
        "iata_code":"ACU"
    },
    {
        "type":"medium_airport",
        "name":"California Redwood Coast-Humboldt County Airport",
        "latitude_deg":40.978101,
        "longitude_deg":-124.109,
        "elevation_ft":221.0,
        "continent":null,
        "iso_country":"US",
        "gps_code":"KACV",
        "iata_code":"ACV"
    },
    {
        "type":"medium_airport",
        "name":"Xingyi Airport",
        "latitude_deg":25.0863888889,
        "longitude_deg":104.959444444,
        "elevation_ft":4150.0,
        "continent":"AS",
        "iso_country":"CN",
        "gps_code":"ZUYI",
        "iata_code":"ACX"
    },
    {
        "type":"medium_airport",
        "name":"Atlantic City International Airport",
        "latitude_deg":39.4575996399,
        "longitude_deg":-74.5772018433,
        "elevation_ft":75.0,
        "continent":null,
        "iso_country":"US",
        "gps_code":"KACY",
        "iata_code":"ACY"
    },
    {
        "type":"medium_airport",
        "name":"Zabol Airport",
        "latitude_deg":31.098301,
        "longitude_deg":61.5439,
        "elevation_ft":1628.0,
        "continent":"AS",
        "iso_country":"IR",
        "gps_code":"OIZB",
        "iata_code":"ACZ"
    },
    {
        "type":"large_airport",
        "name":"Adana \u015eakirpa\u015fa Airport",
        "latitude_deg":36.982201,
        "longitude_deg":35.280399,
        "elevation_ft":65.0,
        "continent":"AS",
        "iso_country":"TR",
        "gps_code":"LTAF",
        "iata_code":"ADA"
    },
    {
        "type":"large_airport",
        "name":"Adnan Menderes International Airport",
        "latitude_deg":38.2924003601,
        "longitude_deg":27.156999588,
        "elevation_ft":412.0,
        "continent":"AS",
        "iso_country":"TR",
        "gps_code":"LTBJ",
        "iata_code":"ADB"
    },
    {
        "type":"small_airport",
        "name":"Andakombe Airport",
        "latitude_deg":-7.1372222222,
        "longitude_deg":145.744722222,
        "elevation_ft":3600.0,
        "continent":"OC",
        "iso_country":"PG",
        "gps_code":"AYAN",
        "iata_code":"ADC"
    },
    {
        "type":"large_airport",
        "name":"Addis Ababa Bole International Airport",
        "latitude_deg":8.9778900147,
        "longitude_deg":38.7993011475,
        "elevation_ft":7630.0,
        "continent":"AF",
        "iso_country":"ET",
        "gps_code":"HAAB",
        "iata_code":"ADD"
    },
    {
        "type":"medium_airport",
        "name":"Aden International Airport",
        "latitude_deg":12.8295,
        "longitude_deg":45.028801,
        "elevation_ft":7.0,
        "continent":"AS",
        "iso_country":"YE",
        "gps_code":"OYAA",
        "iata_code":"ADE"
    },
    {
        "type":"medium_airport",
        "name":"Ad\u0131yaman Airport",
        "latitude_deg":37.7313995361,
        "longitude_deg":38.4688987732,
        "elevation_ft":2216.0,
        "continent":"AS",
        "iso_country":"TR",
        "gps_code":"LTCP",
        "iata_code":"ADF"
    },
    {
        "type":"small_airport",
        "name":"Lenawee County Airport",
        "latitude_deg":41.8676986694,
        "longitude_deg":-84.0773010254,
        "elevation_ft":798.0,
        "continent":null,
        "iso_country":"US",
        "gps_code":"KADG",
        "iata_code":"ADG"
    },
    {
        "type":"small_airport",
        "name":"Aldan Airport",
        "latitude_deg":58.6027984619,
        "longitude_deg":125.408996582,
        "elevation_ft":2241.0,
        "continent":"AS",
        "iso_country":"RU",
        "gps_code":"UEEA",
        "iata_code":"ADH"
    },
    {
        "type":"medium_airport",
        "name":"Arandis Airport",
        "latitude_deg":-22.4622001648,
        "longitude_deg":14.9799995422,
        "elevation_ft":1905.0,
        "continent":"AF",
        "iso_country":null,
        "gps_code":"FYAR",
        "iata_code":"ADI"
    },
    {
        "type":"medium_airport",
        "name":"Amman-Marka International Airport",
        "latitude_deg":31.972700119,
        "longitude_deg":35.9916000366,
        "elevation_ft":2555.0,
        "continent":"AS",
        "iso_country":"JO",
        "gps_code":"OJAM",
        "iata_code":"ADJ"
    },
    {
        "type":"medium_airport",
        "name":"Adak Airport",
        "latitude_deg":51.883943,
        "longitude_deg":-176.641186,
        "elevation_ft":18.0,
        "continent":null,
        "iso_country":"US",
        "gps_code":"PADK",
        "iata_code":"ADK"
    },
    {
        "type":"large_airport",
        "name":"Adelaide International Airport",
        "latitude_deg":-34.945,
        "longitude_deg":138.531006,
        "elevation_ft":20.0,
        "continent":"OC",
        "iso_country":"AU",
        "gps_code":"YPAD",
        "iata_code":"ADL"
    },
    {
        "type":"small_airport",
        "name":"Ardmore Municipal Airport",
        "latitude_deg":34.30301,
        "longitude_deg":-97.0196342,
        "elevation_ft":777.0,
        "continent":null,
        "iso_country":"US",
        "gps_code":"KADM",
        "iata_code":"ADM"
    },
    {
        "type":"small_airport",
        "name":"Andamooka Airport",
        "latitude_deg":-30.438299,
        "longitude_deg":137.136993,
        "elevation_ft":76.0,
        "continent":"OC",
        "iso_country":"AU",
        "gps_code":"YAMK",
        "iata_code":"ADO"
    },
    {
        "type":"medium_airport",
        "name":"Ampara Airport",
        "latitude_deg":7.33776,
        "longitude_deg":81.62594,
        "elevation_ft":150.0,
        "continent":"AS",
        "iso_country":"LK",
        "gps_code":"VCCG",
        "iata_code":"ADP"
    },
    {
        "type":"medium_airport",
        "name":"Kodiak Airport",
        "latitude_deg":57.75,
        "longitude_deg":-152.4940033,
        "elevation_ft":78.0,
        "continent":null,
        "iso_country":"US",
        "gps_code":"PADQ",
        "iata_code":"ADQ"
    },
    {
        "type":"small_airport",
        "name":"Robert F Swinnie Airport",
        "latitude_deg":33.4516983032,
        "longitude_deg":-79.5261993408,
        "elevation_ft":26.0,
        "continent":null,
        "iso_country":"US",
        "gps_code":"KPHH",
        "iata_code":"ADR"
    },
    {
        "type":"small_airport",
        "name":"Addison Airport",
        "latitude_deg":32.9686012268,
        "longitude_deg":-96.8364028931,
        "elevation_ft":644.0,
        "continent":null,
        "iso_country":"US",
        "gps_code":"KADS",
        "iata_code":"ADS"
    },
    {
        "type":"small_airport",
        "name":"Ada Regional Airport",
        "latitude_deg":34.804298,
        "longitude_deg":-96.671303,
        "elevation_ft":1016.0,
        "continent":null,
        "iso_country":"US",
        "gps_code":"KADH",
        "iata_code":"ADT"
    },
    {
        "type":"medium_airport",
        "name":"Ardabil Airport",
        "latitude_deg":38.3256988525,
        "longitude_deg":48.4244003296,
        "elevation_ft":4315.0,
        "continent":"AS",
        "iso_country":"IR",
        "gps_code":"OITL",
        "iata_code":"ADU"
    },
    {
        "type":"small_airport",
        "name":"El Daein Airport",
        "latitude_deg":11.4023,
        "longitude_deg":26.1186,
        "elevation_ft":1560.0,
        "continent":"AF",
        "iso_country":"SD",
        "gps_code":null,
        "iata_code":"ADV"
    },
    {
        "type":"large_airport",
        "name":"Joint Base Andrews",
        "latitude_deg":38.810799,
        "longitude_deg":-76.866997,
        "elevation_ft":280.0,
        "continent":null,
        "iso_country":"US",
        "gps_code":"KADW",
        "iata_code":"ADW"
    },
    {
        "type":"medium_airport",
        "name":"RAF Leuchars",
        "latitude_deg":56.3728981018,
        "longitude_deg":-2.8684399128,
        "elevation_ft":38.0,
        "continent":"EU",
        "iso_country":"GB",
        "gps_code":"EGQL",
        "iata_code":"ADX"
    },
    {
        "type":"small_airport",
        "name":"Alldays Airport",
        "latitude_deg":-22.6790008545,
        "longitude_deg":29.0555000305,
        "elevation_ft":2600.0,
        "continent":"AF",
        "iso_country":"ZA",
        "gps_code":"FAAL",
        "iata_code":"ADY"
    },
    {
        "type":"medium_airport",
        "name":"Gustavo Rojas Pinilla International Airport",
        "latitude_deg":12.5836,
        "longitude_deg":-81.7112,
        "elevation_ft":19.0,
        "continent":"SA",
        "iso_country":"CO",
        "gps_code":"SKSP",
        "iata_code":"ADZ"
    },
    {
        "type":"small_airport",
        "name":"Abemama Airport",
        "latitude_deg":0.490833,
        "longitude_deg":173.828995,
        "elevation_ft":8.0,
        "continent":"OC",
        "iso_country":"KI",
        "gps_code":"NGTB",
        "iata_code":"AEA"
    },
    {
        "type":"medium_airport",
        "name":"Baise Youjiang Airport",
        "latitude_deg":23.7206,
        "longitude_deg":106.959999,
        "elevation_ft":490.0,
        "continent":"AS",
        "iso_country":"CN",
        "gps_code":"ZGBS",
        "iata_code":"AEB"
    },
    {
        "type":"small_airport",
        "name":"Adareil Airport",
        "latitude_deg":10.0536111111,
        "longitude_deg":32.9594444444,
        "elevation_ft":1301.0,
        "continent":"AF",
        "iso_country":"SS",
        "gps_code":null,
        "iata_code":"AEE"
    },
    {
        "type":"medium_airport",
        "name":"Aek Godang Airport",
        "latitude_deg":1.4001,
        "longitude_deg":99.430496,
        "elevation_ft":922.0,
        "continent":"AS",
        "iso_country":"ID",
        "gps_code":"WIME",
        "iata_code":"AEG"
    },
    {
        "type":"medium_airport",
        "name":"Abeche Airport",
        "latitude_deg":13.8470001221,
        "longitude_deg":20.8442993164,
        "elevation_ft":1788.0,
        "continent":"AF",
        "iso_country":"TD",
        "gps_code":"FTTC",
        "iata_code":"AEH"
    },
    {
        "type":"small_airport",
        "name":"Aseki Airport",
        "latitude_deg":-7.3508048555,
        "longitude_deg":146.19386673,
        "elevation_ft":4106.0,
        "continent":"OC",
        "iso_country":"PG",
        "gps_code":"AYAX",
        "iata_code":"AEK"
    },
    {
        "type":"small_airport",
        "name":"Albert Lea Municipal Airport",
        "latitude_deg":43.68149948,
        "longitude_deg":-93.36720276,
        "elevation_ft":1260.0,
        "continent":null,
        "iso_country":"US",
        "gps_code":"KAEL",
        "iata_code":"AEL"
    },
    {
        "type":"small_airport",
        "name":"Amgu Airport",
        "latitude_deg":45.84126,
        "longitude_deg":137.673568,
        "elevation_ft":10.0,
        "continent":"EU",
        "iso_country":"RU",
        "gps_code":"UHTG",
        "iata_code":"AEM"
    },
    {
        "type":"small_airport",
        "name":"Aioun el Atrouss Airport",
        "latitude_deg":16.7112998962,
        "longitude_deg":-9.6378803253,
        "elevation_ft":951.0,
        "continent":"AF",
        "iso_country":"MR",
        "gps_code":"GQNA",
        "iata_code":"AEO"
    },
    {
        "type":"medium_airport",
        "name":"Jorge Newbery Airpark",
        "latitude_deg":-34.5592,
        "longitude_deg":-58.4156,
        "elevation_ft":18.0,
        "continent":"SA",
        "iso_country":"AR",
        "gps_code":"SABE",
        "iata_code":"AEP"
    },
    {
        "type":"small_airport",
        "name":"Ar Horqin Airport",
        "latitude_deg":43.87042,
        "longitude_deg":120.15958,
        "elevation_ft":1335.0,
        "continent":"AS",
        "iso_country":"CN",
        "gps_code":null,
        "iata_code":"AEQ"
    },
    {
        "type":"large_airport",
        "name":"Sochi International Airport",
        "latitude_deg":43.449902,
        "longitude_deg":39.9566,
        "elevation_ft":89.0,
        "continent":"EU",
        "iso_country":"RU",
        "gps_code":"URSS",
        "iata_code":"AER"
    },
    {
        "type":"medium_airport",
        "name":"\u00c5lesund Airport",
        "latitude_deg":62.5625,
        "longitude_deg":6.119699955,
        "elevation_ft":69.0,
        "continent":"EU",
        "iso_country":"NO",
        "gps_code":"ENAL",
        "iata_code":"AES"
    },
    {
        "type":"small_airport",
        "name":"Allakaket Airport",
        "latitude_deg":66.5518035889,
        "longitude_deg":-152.621994019,
        "elevation_ft":441.0,
        "continent":null,
        "iso_country":"US",
        "gps_code":"PFAL",
        "iata_code":"AET"
    },
    {
        "type":"medium_airport",
        "name":"Abu Musa Island Airport",
        "latitude_deg":25.8757,
        "longitude_deg":55.033001,
        "elevation_ft":23.0,
        "continent":"AS",
        "iso_country":"IR",
        "gps_code":"OIBA",
        "iata_code":"AEU"
    },
    {
        "type":"medium_airport",
        "name":"Alexandria International Airport",
        "latitude_deg":31.3274,
        "longitude_deg":-92.549797,
        "elevation_ft":89.0,
        "continent":null,
        "iso_country":"US",
        "gps_code":"KAEX",
        "iata_code":"AEX"
    },
    {
        "type":"medium_airport",
        "name":"Akureyri Airport",
        "latitude_deg":65.6600036621,
        "longitude_deg":-18.0727005005,
        "elevation_ft":6.0,
        "continent":"EU",
        "iso_country":"IS",
        "gps_code":"BIAR",
        "iata_code":"AEY"
    },
    {
        "type":"medium_airport",
        "name":"Suboficial Ay Santiago Germano Airport",
        "latitude_deg":-34.588299,
        "longitude_deg":-68.4039,
        "elevation_ft":2470.0,
        "continent":"SA",
        "iso_country":"AR",
        "gps_code":"SAMR",
        "iata_code":"AFA"
    },
    {
        "type":"small_airport",
        "name":"Port Alfred Airport",
        "latitude_deg":-33.5541992188,
        "longitude_deg":26.8777008057,
        "elevation_ft":275.0,
        "continent":"AF",
        "iso_country":"ZA",
        "gps_code":"FAPA",
        "iata_code":"AFD"
    },
    {
        "type":"small_airport",
        "name":"USAF Academy Airfield",
        "latitude_deg":38.96969986,
        "longitude_deg":-104.8130035,
        "elevation_ft":6572.0,
        "continent":null,
        "iso_country":"US",
        "gps_code":"KAFF",
        "iata_code":"AFF"
    },
    {
        "type":"small_airport",
        "name":"Amalfi Airport",
        "latitude_deg":6.91667,
        "longitude_deg":-75.0667,
        "elevation_ft":5507.0,
        "continent":"SA",
        "iso_country":"CO",
        "gps_code":"SKAM",
        "iata_code":"AFI"
    },
    {
        "type":"medium_airport",
        "name":"Piloto Osvaldo Marques Dias Airport",
        "latitude_deg":-9.866389,
        "longitude_deg":-56.106298,
        "elevation_ft":948.0,
        "continent":"SA",
        "iso_country":"BR",
        "gps_code":"SBAT",
        "iata_code":"AFL"
    },
    {
        "type":"small_airport",
        "name":"Jaffrey Airport Silver Ranch Airport",
        "latitude_deg":42.8050994873,
        "longitude_deg":-72.0029983521,
        "elevation_ft":1040.0,
        "continent":null,
        "iso_country":"US",
        "gps_code":"KAFN",
        "iata_code":"AFN"
    },
    {
        "type":"small_airport",
        "name":"Afton Municipal Airport",
        "latitude_deg":42.7112007141,
        "longitude_deg":-110.942001343,
        "elevation_ft":6221.0,
        "continent":null,
        "iso_country":"US",
        "gps_code":"KAFO",
        "iata_code":"AFO"
    },
    {
        "type":"small_airport",
        "name":"Afore Airstrip",
        "latitude_deg":-9.1422222222,
        "longitude_deg":148.390833333,
        "elevation_ft":2500.0,
        "continent":"OC",
        "iso_country":"PG",
        "gps_code":"AYAF",
        "iata_code":"AFR"
    },
    {
        "type":"small_airport",
        "name":"Sugraly Airport",
        "latitude_deg":41.613899231,
        "longitude_deg":64.2332000732,
        "elevation_ft":1396.0,
        "continent":"AS",
        "iso_country":"UZ",
        "gps_code":"UTSN",
        "iata_code":"AFS"
    },
    {
        "type":"small_airport",
        "name":"Afutara Aerodrome",
        "latitude_deg":-9.1913888889,
        "longitude_deg":160.948611111,
        "elevation_ft":23.0,
        "continent":"OC",
        "iso_country":"SB",
        "gps_code":"AGAF",
        "iata_code":"AFT"
    },
    {
        "type":"large_airport",
        "name":"Fort Worth Alliance Airport",
        "latitude_deg":32.9875984192,
        "longitude_deg":-97.3188018799,
        "elevation_ft":722.0,
        "continent":null,
        "iso_country":"US",
        "gps_code":"KAFW",
        "iata_code":"AFW"
    },
    {
        "type":"medium_airport",
        "name":"Afyon Air Base",
        "latitude_deg":38.726398,
        "longitude_deg":30.601101,
        "elevation_ft":3310.0,
        "continent":"AS",
        "iso_country":"TR",
        "gps_code":"LTAH",
        "iata_code":"AFY"
    },
    {
        "type":"medium_airport",
        "name":"Sabzevar National Airport",
        "latitude_deg":36.1680984497,
        "longitude_deg":57.595199585,
        "elevation_ft":3010.0,
        "continent":"AS",
        "iso_country":"IR",
        "gps_code":"OIMS",
        "iata_code":"AFZ"
    },
    {
        "type":"medium_airport",
        "name":"Al Massira Airport",
        "latitude_deg":30.322478,
        "longitude_deg":-9.412003,
        "elevation_ft":250.0,
        "continent":"AF",
        "iso_country":"MA",
        "gps_code":"GMAD",
        "iata_code":"AGA"
    },
    {
        "type":"medium_airport",
        "name":"Augsburg Airport",
        "latitude_deg":48.425278,
        "longitude_deg":10.931667,
        "elevation_ft":1516.0,
        "continent":"EU",
        "iso_country":"DE",
        "gps_code":"EDMA",
        "iata_code":"AGB"
    },
    {
        "type":"medium_airport",
        "name":"Allegheny County Airport",
        "latitude_deg":40.3544006348,
        "longitude_deg":-79.9301986694,
        "elevation_ft":1252.0,
        "continent":null,
        "iso_country":"US",
        "gps_code":"KAGC",
        "iata_code":"AGC"
    },
    {
        "type":"small_airport",
        "name":"Anggi Airport",
        "latitude_deg":-1.3858,
        "longitude_deg":133.8737,
        "elevation_ft":6644.0,
        "continent":"AS",
        "iso_country":"ID",
        "gps_code":"WASG",
        "iata_code":"AGD"
    },
    {
        "type":"small_airport",
        "name":"Wangerooge Airport",
        "latitude_deg":53.7827796936,
        "longitude_deg":7.9138889313,
        "elevation_ft":7.0,
        "continent":"EU",
        "iso_country":"DE",
        "gps_code":"EDWG",
        "iata_code":"AGE"
    },
    {
        "type":"medium_airport",
        "name":"Agen-La Garenne Airport",
        "latitude_deg":44.1747016907,
        "longitude_deg":0.5905560255,
        "elevation_ft":204.0,
        "continent":"EU",
        "iso_country":"FR",
        "gps_code":"LFBA",
        "iata_code":"AGF"
    },
    {
        "type":"small_airport",
        "name":"Angoram Airport",
        "latitude_deg":-4.0558333333,
        "longitude_deg":144.073888889,
        "elevation_ft":75.0,
        "continent":"OC",
        "iso_country":"PG",
        "gps_code":null,
        "iata_code":"AGG"
    },
    {
        "type":"medium_airport",
        "name":"\u00c4ngelholm-Helsingborg Airport",
        "latitude_deg":56.2961006165,
        "longitude_deg":12.8471002579,
        "elevation_ft":68.0,
        "continent":"EU",
        "iso_country":"SE",
        "gps_code":"ESTA",
        "iata_code":"AGH"
    },
    {
        "type":"small_airport",
        "name":"Wageningen Airstrip",
        "latitude_deg":5.841128,
        "longitude_deg":-56.673328,
        "elevation_ft":6.0,
        "continent":"SA",
        "iso_country":"SR",
        "gps_code":"SMWA",
        "iata_code":"AGI"
    },
    {
        "type":"small_airport",
        "name":"Aguni Airport",
        "latitude_deg":26.5925006866,
        "longitude_deg":127.240997314,
        "elevation_ft":38.0,
        "continent":"AS",
        "iso_country":"JP",
        "gps_code":"RORA",
        "iata_code":"AGJ"
    },
    {
        "type":"small_airport",
        "name":"Kagua Airport",
        "latitude_deg":-6.3963888889,
        "longitude_deg":143.853611111,
        "elevation_ft":5350.0,
        "continent":"OC",
        "iso_country":"PG",
        "gps_code":null,
        "iata_code":"AGK"
    },
    {
        "type":"small_airport",
        "name":"Wanigela Airport",
        "latitude_deg":-9.3375,
        "longitude_deg":149.155555556,
        "elevation_ft":53.0,
        "continent":"OC",
        "iso_country":"PG",
        "gps_code":"AYWG",
        "iata_code":"AGL"
    },
    {
        "type":"small_airport",
        "name":"Magnolia Municipal Airport \/ Ralph C Weiser Field",
        "latitude_deg":33.228001,
        "longitude_deg":-93.217002,
        "elevation_ft":319.0,
        "continent":null,
        "iso_country":"US",
        "gps_code":"KAGO",
        "iata_code":"AGO"
    },
    {
        "type":"large_airport",
        "name":"M\u00e1laga Airport",
        "latitude_deg":36.6749000549,
        "longitude_deg":-4.4991102219,
        "elevation_ft":53.0,
        "continent":"EU",
        "iso_country":"ES",
        "gps_code":"LEMG",
        "iata_code":"AGP"
    },
    {
        "type":"medium_airport",
        "name":"Agra Airport \/ Agra Air Force Station",
        "latitude_deg":27.157683,
        "longitude_deg":77.960942,
        "elevation_ft":551.0,
        "continent":"AS",
        "iso_country":"IN",
        "gps_code":"VIAG",
        "iata_code":"AGR"
    },
    {
        "type":"large_airport",
        "name":"Augusta Regional At Bush Field",
        "latitude_deg":33.3698997498,
        "longitude_deg":-81.9645004272,
        "elevation_ft":144.0,
        "continent":null,
        "iso_country":"US",
        "gps_code":"KAGS",
        "iata_code":"AGS"
    },
    {
        "type":"medium_airport",
        "name":"Guarani International Airport",
        "latitude_deg":-25.454516,
        "longitude_deg":-54.842682,
        "elevation_ft":846.0,
        "continent":"SA",
        "iso_country":"PY",
        "gps_code":"SGES",
        "iata_code":"AGT"
    },
    {
        "type":"medium_airport",
        "name":"Jes\u00fas Ter\u00e1n Paredo International Airport",
        "latitude_deg":21.705601,
        "longitude_deg":-102.318001,
        "elevation_ft":6112.0,
        "continent":null,
        "iso_country":"MX",
        "gps_code":"MMAS",
        "iata_code":"AGU"
    },
    {
        "type":"medium_airport",
        "name":"Oswaldo Guevara Mujica Airport",
        "latitude_deg":9.553375,
        "longitude_deg":-69.237869,
        "elevation_ft":640.0,
        "continent":"SA",
        "iso_country":"VE",
        "gps_code":"SVAC",
        "iata_code":"AGV"
    },
    {
        "type":"small_airport",
        "name":"Agnew Airport",
        "latitude_deg":-12.1456003189,
        "longitude_deg":142.1490020752,
        "elevation_ft":null,
        "continent":"OC",
        "iso_country":"AU",
        "gps_code":null,
        "iata_code":"AGW"
    },
    {
        "type":"medium_airport",
        "name":"Agatti Airport",
        "latitude_deg":10.8237,
        "longitude_deg":72.176003,
        "elevation_ft":14.0,
        "continent":"AS",
        "iso_country":"IN",
        "gps_code":"VOAT",
        "iata_code":"AGX"
    },
    {
        "type":"small_airport",
        "name":"Argyle Downs Airport",
        "latitude_deg":-16.514,
        "longitude_deg":128.9245,
        "elevation_ft":407.0,
        "continent":"OC",
        "iso_country":"AU",
        "gps_code":null,
        "iata_code":"AGY"
    },
    {
        "type":"medium_airport",
        "name":"Aggeneys Airport",
        "latitude_deg":-29.2817993164,
        "longitude_deg":18.8138999939,
        "elevation_ft":2648.0,
        "continent":"AF",
        "iso_country":"ZA",
        "gps_code":"FAAG",
        "iata_code":"AGZ"
    },
    {
        "type":"medium_airport",
        "name":"Abha International Airport",
        "latitude_deg":18.2404,
        "longitude_deg":42.656601,
        "elevation_ft":6858.0,
        "continent":"AS",
        "iso_country":"SA",
        "gps_code":"OEAB",
        "iata_code":"AHB"
    },
    {
        "type":"small_airport",
        "name":"Amedee Army Air Field",
        "latitude_deg":40.26620102,
        "longitude_deg":-120.1529999,
        "elevation_ft":4012.0,
        "continent":null,
        "iso_country":"US",
        "gps_code":"KAHC",
        "iata_code":"AHC"
    },
    {
        "type":"small_airport",
        "name":"Ardmore Downtown Executive Airport",
        "latitude_deg":34.1469993591,
        "longitude_deg":-97.1227035522,
        "elevation_ft":844.0,
        "continent":null,
        "iso_country":"US",
        "gps_code":null,
        "iata_code":"AHD"
    },
    {
        "type":"medium_airport",
        "name":"Ahe Airport",
        "latitude_deg":-14.4280996323,
        "longitude_deg":-146.2570037842,
        "elevation_ft":11.0,
        "continent":"OC",
        "iso_country":"PF",
        "gps_code":"NTHE",
        "iata_code":"AHE"
    },
    {
        "type":"small_airport",
        "name":"Arapahoe Municipal Airport",
        "latitude_deg":40.3395004272,
        "longitude_deg":-99.90650177,
        "elevation_ft":2270.0,
        "continent":null,
        "iso_country":"US",
        "gps_code":null,
        "iata_code":"AHF"
    },
    {
        "type":"small_airport",
        "name":"Amery Municipal Airport",
        "latitude_deg":45.2811012268,
        "longitude_deg":-92.3753967285,
        "elevation_ft":1088.0,
        "continent":null,
        "iso_country":"US",
        "gps_code":"KAHH",
        "iata_code":"AHH"
    },
    {
        "type":"small_airport",
        "name":"Amahai Airport",
        "latitude_deg":-3.3480000496,
        "longitude_deg":128.925994873,
        "elevation_ft":29.0,
        "continent":"AS",
        "iso_country":"ID",
        "gps_code":"WAPA",
        "iata_code":"AHI"
    },
    {
        "type":"medium_airport",
        "name":"Hongyuan Airport",
        "latitude_deg":32.53154,
        "longitude_deg":102.35224,
        "elevation_ft":11600.0,
        "continent":"AS",
        "iso_country":"CN",
        "gps_code":"ZUHY",
        "iata_code":"AHJ"
    },
    {
        "type":"small_airport",
        "name":"Aishalton Airport",
        "latitude_deg":2.4865300655,
        "longitude_deg":-59.3134002686,
        "elevation_ft":587.0,
        "continent":"SA",
        "iso_country":"GY",
        "gps_code":"SYAH",
        "iata_code":"AHL"
    },
    {
        "type":"small_airport",
        "name":"Ashland Municipal Sumner Parker Field",
        "latitude_deg":42.1902999878,
        "longitude_deg":-122.661003113,
        "elevation_ft":1885.0,
        "continent":null,
        "iso_country":"US",
        "gps_code":"KS03",
        "iata_code":"AHM"
    },
    {
        "type":"medium_airport",
        "name":"Athens Ben Epps Airport",
        "latitude_deg":33.948600769,
        "longitude_deg":-83.3263015747,
        "elevation_ft":808.0,
        "continent":null,
        "iso_country":"US",
        "gps_code":"KAHN",
        "iata_code":"AHN"
    },
    {
        "type":"medium_airport",
        "name":"Alghero-Fertilia Airport",
        "latitude_deg":40.632099,
        "longitude_deg":8.29077,
        "elevation_ft":87.0,
        "continent":"EU",
        "iso_country":"IT",
        "gps_code":"LIEA",
        "iata_code":"AHO"
    },
    {
        "type":"small_airport",
        "name":"Ahuas Airport",
        "latitude_deg":15.4722,
        "longitude_deg":-84.352203,
        "elevation_ft":249.0,
        "continent":null,
        "iso_country":"HN",
        "gps_code":"MHAH",
        "iata_code":"AHS"
    },
    {
        "type":"medium_airport",
        "name":"Cherif Al Idrissi Airport",
        "latitude_deg":35.1771011353,
        "longitude_deg":-3.8395199776,
        "elevation_ft":95.0,
        "continent":"AF",
        "iso_country":"MA",
        "gps_code":"GMTA",
        "iata_code":"AHU"
    },
    {
        "type":"small_airport",
        "name":"Ambatolhy Airport",
        "latitude_deg":-20.0158333333,
        "longitude_deg":45.535,
        "elevation_ft":340.0,
        "continent":"AF",
        "iso_country":"MG",
        "gps_code":null,
        "iata_code":"AHY"
    },
    {
        "type":"small_airport",
        "name":"Altiport L'Alpe d'Huez - Henri GIRAUD",
        "latitude_deg":45.088299,
        "longitude_deg":6.08472,
        "elevation_ft":6102.0,
        "continent":"EU",
        "iso_country":"FR",
        "gps_code":"LFHU",
        "iata_code":"AHZ"
    },
    {
        "type":"small_airport",
        "name":"Alliance Municipal Airport",
        "latitude_deg":42.0531997681,
        "longitude_deg":-102.804000854,
        "elevation_ft":3931.0,
        "continent":null,
        "iso_country":"US",
        "gps_code":"KAIA",
        "iata_code":"AIA"
    },
    {
        "type":"small_airport",
        "name":"Ailinglaplap Airok Airport",
        "latitude_deg":7.279422,
        "longitude_deg":168.8257,
        "elevation_ft":16.0,
        "continent":"OC",
        "iso_country":"MH",
        "gps_code":null,
        "iata_code":"AIC"
    },
    {
        "type":"small_airport",
        "name":"Anderson Municipal Darlington Field",
        "latitude_deg":40.1086006165,
        "longitude_deg":-85.6129989624,
        "elevation_ft":919.0,
        "continent":null,
        "iso_country":"US",
        "gps_code":"KAID",
        "iata_code":"AID"
    },
    {
        "type":"small_airport",
        "name":"Aiome Airport",
        "latitude_deg":-5.145699978,
        "longitude_deg":144.7307003,
        "elevation_ft":350.0,
        "continent":"OC",
        "iso_country":"PG",
        "gps_code":"AYAO",
        "iata_code":"AIE"
    },
    {
        "type":"small_airport",
        "name":"Marcelo Pires Halzhausen Airport",
        "latitude_deg":-22.64,
        "longitude_deg":-50.453056,
        "elevation_ft":1850.0,
        "continent":"SA",
        "iso_country":"BR",
        "gps_code":"SNAX",
        "iata_code":"AIF"
    },
    {
        "type":"small_airport",
        "name":"Yalinga Airport",
        "latitude_deg":6.5199999809,
        "longitude_deg":23.2600002289,
        "elevation_ft":1975.0,
        "continent":"AF",
        "iso_country":"CF",
        "gps_code":"FEFY",
        "iata_code":"AIG"
    },
    {
        "type":"small_airport",
        "name":"Aiambak Airport",
        "latitude_deg":-7.3427777778,
        "longitude_deg":141.2675,
        "elevation_ft":90.0,
        "continent":"OC",
        "iso_country":"PG",
        "gps_code":"AYAK",
        "iata_code":"AIH"
    },
    {
        "type":"small_airport",
        "name":"Ali-Sabieh Airport",
        "latitude_deg":11.146889,
        "longitude_deg":42.72,
        "elevation_ft":2313.0,
        "continent":"AF",
        "iso_country":"DJ",
        "gps_code":"HDAS",
        "iata_code":"AII"
    },
    {
        "type":"small_airport",
        "name":"Aiken Regional Airport",
        "latitude_deg":33.649399,
        "longitude_deg":-81.684998,
        "elevation_ft":528.0,
        "continent":null,
        "iso_country":"US",
        "gps_code":"KAIK",
        "iata_code":"AIK"
    },
    {
        "type":"small_airport",
        "name":"Alligandi Airport",
        "latitude_deg":9.2226,
        "longitude_deg":-78.0236,
        "elevation_ft":55.0,
        "continent":null,
        "iso_country":"PA",
        "gps_code":null,
        "iata_code":"AIL"
    },
    {
        "type":"small_airport",
        "name":"Ailuk Airport",
        "latitude_deg":10.216799736,
        "longitude_deg":169.983001709,
        "elevation_ft":null,
        "continent":"OC",
        "iso_country":"MH",
        "gps_code":null,
        "iata_code":"AIM"
    },
    {
        "type":"medium_airport",
        "name":"Wainwright Airport",
        "latitude_deg":70.6380004883,
        "longitude_deg":-159.994995117,
        "elevation_ft":41.0,
        "continent":null,
        "iso_country":"US",
        "gps_code":"PAWI",
        "iata_code":"AIN"
    },
    {
        "type":"small_airport",
        "name":"Atlantic Municipal Airport",
        "latitude_deg":41.40729904,
        "longitude_deg":-95.04689789,
        "elevation_ft":1165.0,
        "continent":null,
        "iso_country":"US",
        "gps_code":"KAIO",
        "iata_code":"AIO"
    },
    {
        "type":"small_airport",
        "name":"Adampur Airport",
        "latitude_deg":31.4338,
        "longitude_deg":75.758797,
        "elevation_ft":775.0,
        "continent":"AS",
        "iso_country":"IN",
        "gps_code":"VIAX",
        "iata_code":"AIP"
    },
    {
        "type":"small_airport",
        "name":"Aripuan\u00e3 Airport",
        "latitude_deg":-10.188278,
        "longitude_deg":-59.457273,
        "elevation_ft":623.0,
        "continent":"SA",
        "iso_country":"BR",
        "gps_code":"SSOU",
        "iata_code":"AIR"
    },
    {
        "type":"small_airport",
        "name":"Arorae Island Airport",
        "latitude_deg":-2.6161100864,
        "longitude_deg":176.8029937744,
        "elevation_ft":null,
        "continent":"OC",
        "iso_country":"KI",
        "gps_code":"NGTR",
        "iata_code":"AIS"
    },
    {
        "type":"small_airport",
        "name":"Aitutaki Airport",
        "latitude_deg":-18.8309001923,
        "longitude_deg":-159.7640075684,
        "elevation_ft":14.0,
        "continent":"OC",
        "iso_country":"CK",
        "gps_code":"NCAI",
        "iata_code":"AIT"
    },
    {
        "type":"small_airport",
        "name":"Enua Airport",
        "latitude_deg":-19.9678001404,
        "longitude_deg":-158.1190032959,
        "elevation_ft":36.0,
        "continent":"OC",
        "iso_country":"CK",
        "gps_code":"NCAT",
        "iata_code":"AIU"
    },
    {
        "type":"small_airport",
        "name":"George Downer Airport",
        "latitude_deg":33.106499,
        "longitude_deg":-88.1978,
        "elevation_ft":150.0,
        "continent":null,
        "iso_country":"US",
        "gps_code":"KAIV",
        "iata_code":"AIV"
    },
    {
        "type":"small_airport",
        "name":"Ai-Ais Airport",
        "latitude_deg":-27.995,
        "longitude_deg":17.5966,
        "elevation_ft":2000.0,
        "continent":"AF",
        "iso_country":null,
        "gps_code":"FYAA",
        "iata_code":"AIW"
    },
    {
        "type":"small_airport",
        "name":"Lee C Fine Memorial Airport",
        "latitude_deg":38.0960006714,
        "longitude_deg":-92.5494995117,
        "elevation_ft":869.0,
        "continent":null,
        "iso_country":"US",
        "gps_code":"KAIZ",
        "iata_code":"AIZ"
    },
    {
        "type":"medium_airport",
        "name":"Ajaccio-Napol\u00e9on Bonaparte Airport",
        "latitude_deg":41.9235992432,
        "longitude_deg":8.8029203415,
        "elevation_ft":18.0,
        "continent":"EU",
        "iso_country":"FR",
        "gps_code":"LFKJ",
        "iata_code":"AJA"
    },
    {
        "type":"medium_airport",
        "name":"Al-Jawf Domestic Airport",
        "latitude_deg":29.7851009369,
        "longitude_deg":40.0999984741,
        "elevation_ft":2261.0,
        "continent":"AS",
        "iso_country":"SA",
        "gps_code":"OESK",
        "iata_code":"AJF"
    },
    {
        "type":"medium_airport",
        "name":"A\u011fr\u0131 Airport",
        "latitude_deg":39.655642,
        "longitude_deg":43.025742,
        "elevation_ft":5462.0,
        "continent":"AS",
        "iso_country":"TR",
        "gps_code":"LTCO",
        "iata_code":"AJI"
    },
    {
        "type":"small_airport",
        "name":"Akjoujt Airport",
        "latitude_deg":19.7330169678,
        "longitude_deg":-14.3832492828,
        "elevation_ft":403.0,
        "continent":"AF",
        "iso_country":"MR",
        "gps_code":"GQNJ",
        "iata_code":"AJJ"
    },
    {
        "type":"small_airport",
        "name":"Arak Airport",
        "latitude_deg":34.1380996704,
        "longitude_deg":49.8473014832,
        "elevation_ft":5440.0,
        "continent":"AS",
        "iso_country":"IR",
        "gps_code":"OIHR",
        "iata_code":"AJK"
    },
    {
        "type":"medium_airport",
        "name":"Lengpui Airport",
        "latitude_deg":23.840599,
        "longitude_deg":92.619698,
        "elevation_ft":1398.0,
        "continent":"AS",
        "iso_country":"IN",
        "gps_code":"VELP",
        "iata_code":"AJL"
    },
    {
        "type":"medium_airport",
        "name":"Ouani Airport",
        "latitude_deg":-12.1316995621,
        "longitude_deg":44.4303016663,
        "elevation_ft":62.0,
        "continent":"AF",
        "iso_country":"KM",
        "gps_code":"FMCV",
        "iata_code":"AJN"
    },
    {
        "type":"medium_airport",
        "name":"Arvidsjaur Airport",
        "latitude_deg":65.5903015137,
        "longitude_deg":19.2819004059,
        "elevation_ft":1245.0,
        "continent":"EU",
        "iso_country":"SE",
        "gps_code":"ESNX",
        "iata_code":"AJR"
    },
    {
        "type":"small_airport",
        "name":"Punta Abreojos Airport",
        "latitude_deg":26.7272,
        "longitude_deg":-113.558998,
        "elevation_ft":null,
        "continent":null,
        "iso_country":"MX",
        "gps_code":null,
        "iata_code":"AJS"
    },
    {
        "type":"medium_airport",
        "name":"Santa Maria Airport",
        "latitude_deg":-10.984,
        "longitude_deg":-37.070301,
        "elevation_ft":139.0,
        "continent":"SA",
        "iso_country":"BR",
        "gps_code":"SBAR",
        "iata_code":"AJU"
    },
    {
        "type":"medium_airport",
        "name":"Mano Dayak International Airport",
        "latitude_deg":16.9659996033,
        "longitude_deg":8.0001096725,
        "elevation_ft":1657.0,
        "continent":"AF",
        "iso_country":"NE",
        "gps_code":"DRZA",
        "iata_code":"AJY"
    },
    {
        "type":"small_airport",
        "name":"Ankang Fuqiang Airport",
        "latitude_deg":32.75696,
        "longitude_deg":108.87338,
        "elevation_ft":1209.0,
        "continent":"AS",
        "iso_country":"CN",
        "gps_code":"ZLAK",
        "iata_code":"AKA"
    },
    {
        "type":"small_airport",
        "name":"Atka Airport",
        "latitude_deg":52.22029877,
        "longitude_deg":-174.2059937,
        "elevation_ft":57.0,
        "continent":null,
        "iso_country":"US",
        "gps_code":"PAAK",
        "iata_code":"AKB"
    },
    {
        "type":"medium_airport",
        "name":"Akron Executive Airport",
        "latitude_deg":41.037498,
        "longitude_deg":-81.466904,
        "elevation_ft":1067.0,
        "continent":null,
        "iso_country":"US",
        "gps_code":"KAKR",
        "iata_code":"AKC"
    },
    {
        "type":"medium_airport",
        "name":"Akola Airport",
        "latitude_deg":20.698931,
        "longitude_deg":77.056883,
        "elevation_ft":999.0,
        "continent":"AS",
        "iso_country":"IN",
        "gps_code":"VAAK",
        "iata_code":"AKD"
    },
    {
        "type":"small_airport",
        "name":"Akieni Airport",
        "latitude_deg":-1.1396700144,
        "longitude_deg":13.9035997391,
        "elevation_ft":1660.0,
        "continent":"AF",
        "iso_country":"GA",
        "gps_code":"FOGA",
        "iata_code":"AKE"
    },
    {
        "type":"medium_airport",
        "name":"Kufra Airport",
        "latitude_deg":24.1786994934,
        "longitude_deg":23.313999176,
        "elevation_ft":1367.0,
        "continent":"AF",
        "iso_country":"LY",
        "gps_code":"HLKF",
        "iata_code":"AKF"
    },
    {
        "type":"small_airport",
        "name":"Anguganak Airport",
        "latitude_deg":-3.560504,
        "longitude_deg":142.217307,
        "elevation_ft":937.0,
        "continent":"OC",
        "iso_country":"PG",
        "gps_code":"AYGU",
        "iata_code":"AKG"
    },
    {
        "type":"medium_airport",
        "name":"Prince Sultan Air Base",
        "latitude_deg":24.0627002716,
        "longitude_deg":47.5805015564,
        "elevation_ft":1651.0,
        "continent":"AS",
        "iso_country":"SA",
        "gps_code":"OEPS",
        "iata_code":"AKH"
    },
    {
        "type":"small_airport",
        "name":"Akiak Airport",
        "latitude_deg":60.9029006958,
        "longitude_deg":-161.231002808,
        "elevation_ft":30.0,
        "continent":null,
        "iso_country":"US",
        "gps_code":"PFAK",
        "iata_code":"AKI"
    },
    {
        "type":"medium_airport",
        "name":"Asahikawa Airport",
        "latitude_deg":43.670799,
        "longitude_deg":142.447006,
        "elevation_ft":721.0,
        "continent":"AS",
        "iso_country":"JP",
        "gps_code":"RJEC",
        "iata_code":"AKJ"
    },
    {
        "type":"small_airport",
        "name":"Akhiok Airport",
        "latitude_deg":56.9387016296,
        "longitude_deg":-154.182998657,
        "elevation_ft":44.0,
        "continent":null,
        "iso_country":"US",
        "gps_code":"PAKH",
        "iata_code":"AKK"
    },
    {
        "type":"large_airport",
        "name":"Auckland International Airport",
        "latitude_deg":-37.008099,
        "longitude_deg":174.792007,
        "elevation_ft":23.0,
        "continent":"OC",
        "iso_country":"NZ",
        "gps_code":"NZAA",
        "iata_code":"AKL"
    },
    {
        "type":"small_airport",
        "name":"Zakuoma Airport",
        "latitude_deg":10.8902777778,
        "longitude_deg":19.8172222222,
        "elevation_ft":1370.0,
        "continent":"AF",
        "iso_country":"TD",
        "gps_code":null,
        "iata_code":"AKM"
    },
    {
        "type":"medium_airport",
        "name":"King Salmon Airport",
        "latitude_deg":58.677845,
        "longitude_deg":-156.651965,
        "elevation_ft":73.0,
        "continent":null,
        "iso_country":"US",
        "gps_code":"PAKN",
        "iata_code":"AKN"
    },
    {
        "type":"small_airport",
        "name":"Colorado Plains Regional Airport",
        "latitude_deg":40.1755981445,
        "longitude_deg":-103.222000122,
        "elevation_ft":4714.0,
        "continent":null,
        "iso_country":"US",
        "gps_code":"KAKO",
        "iata_code":"AKO"
    },
    {
        "type":"medium_airport",
        "name":"Anaktuvuk Pass Airport",
        "latitude_deg":68.13359833,
        "longitude_deg":-151.7429962,
        "elevation_ft":2102.0,
        "continent":null,
        "iso_country":"US",
        "gps_code":"PAKP",
        "iata_code":"AKP"
    },
    {
        "type":"small_airport",
        "name":"Gunung Batin Airport",
        "latitude_deg":-4.6111397743,
        "longitude_deg":105.2320022583,
        "elevation_ft":99.0,
        "continent":"AS",
        "iso_country":"ID",
        "gps_code":null,
        "iata_code":"AKQ"
    },
    {
        "type":"medium_airport",
        "name":"Akure Airport",
        "latitude_deg":7.2467398643,
        "longitude_deg":5.3010101318,
        "elevation_ft":1100.0,
        "continent":"AF",
        "iso_country":"NG",
        "gps_code":"DNAK",
        "iata_code":"AKR"
    },
    {
        "type":"small_airport",
        "name":"Gwaunaru'u Airport",
        "latitude_deg":-8.70257,
        "longitude_deg":160.682007,
        "elevation_ft":5.0,
        "continent":"OC",
        "iso_country":"SB",
        "gps_code":"AGGA",
        "iata_code":"AKS"
    },
    {
        "type":"large_airport",
        "name":"RAF Akrotiri",
        "latitude_deg":34.590401,
        "longitude_deg":32.9879,
        "elevation_ft":76.0,
        "continent":"EU",
        "iso_country":"GB",
        "gps_code":"LCRA",
        "iata_code":"AKT"
    },
    {
        "type":"medium_airport",
        "name":"Aksu Onsu Airport",
        "latitude_deg":41.262501,
        "longitude_deg":80.291702,
        "elevation_ft":3816.0,
        "continent":"AS",
        "iso_country":"CN",
        "gps_code":"ZWAK",
        "iata_code":"AKU"
    },
    {
        "type":"medium_airport",
        "name":"Akulivik Airport",
        "latitude_deg":60.8185997009,
        "longitude_deg":-78.1485977173,
        "elevation_ft":75.0,
        "continent":null,
        "iso_country":"CA",
        "gps_code":"CYKO",
        "iata_code":"AKV"
    },
    {
        "type":"medium_airport",
        "name":"Aghajari Airport",
        "latitude_deg":30.7444,
        "longitude_deg":49.6772,
        "elevation_ft":88.0,
        "continent":"AS",
        "iso_country":"IR",
        "gps_code":"OIAG",
        "iata_code":"AKW"
    },
    {
        "type":"medium_airport",
        "name":"Aktobe Airport",
        "latitude_deg":50.2458,
        "longitude_deg":57.206699,
        "elevation_ft":738.0,
        "continent":"AS",
        "iso_country":"KZ",
        "gps_code":"UATT",
        "iata_code":"AKX"
    },
    {
        "type":"medium_airport",
        "name":"Sittwe Airport",
        "latitude_deg":20.1326999664,
        "longitude_deg":92.8725967407,
        "elevation_ft":27.0,
        "continent":"AS",
        "iso_country":"MM",
        "gps_code":"VYSW",
        "iata_code":"AKY"
    },
    {
        "type":"large_airport",
        "name":"Almaty Airport",
        "latitude_deg":43.3521003723,
        "longitude_deg":77.0404968262,
        "elevation_ft":2234.0,
        "continent":"AS",
        "iso_country":"KZ",
        "gps_code":"UAAA",
        "iata_code":"ALA"
    },
    {
        "type":"medium_airport",
        "name":"Albany International Airport",
        "latitude_deg":42.748298645,
        "longitude_deg":-73.8016967773,
        "elevation_ft":285.0,
        "continent":null,
        "iso_country":"US",
        "gps_code":"KALB",
        "iata_code":"ALB"
    },
    {
        "type":"large_airport",
        "name":"Alicante International Airport",
        "latitude_deg":38.2821998596,
        "longitude_deg":-0.5581560135,
        "elevation_ft":142.0,
        "continent":"EU",
        "iso_country":"ES",
        "gps_code":"LEAL",
        "iata_code":"ALC"
    },
    {
        "type":"small_airport",
        "name":"Alerta Airport",
        "latitude_deg":-11.6829996109,
        "longitude_deg":-69.3330001831,
        "elevation_ft":797.0,
        "continent":"SA",
        "iso_country":"PE",
        "gps_code":"SPAR",
        "iata_code":"ALD"
    },
    {
        "type":"small_airport",
        "name":"Alpine Casparis Municipal Airport",
        "latitude_deg":30.3841991425,
        "longitude_deg":-103.683998108,
        "elevation_ft":4515.0,
        "continent":null,
        "iso_country":"US",
        "gps_code":null,
        "iata_code":"ALE"
    },
    {
        "type":"medium_airport",
        "name":"Alta Airport",
        "latitude_deg":69.9760971069,
        "longitude_deg":23.3717002869,
        "elevation_ft":9.0,
        "continent":"EU",
        "iso_country":"NO",
        "gps_code":"ENAT",
        "iata_code":"ALF"
    },
    {
        "type":"large_airport",
        "name":"Houari Boumediene Airport",
        "latitude_deg":36.691002,
        "longitude_deg":3.21541,
        "elevation_ft":82.0,
        "continent":"AF",
        "iso_country":"DZ",
        "gps_code":"DAAG",
        "iata_code":"ALG"
    },
    {
        "type":"medium_airport",
        "name":"Albany Airport",
        "latitude_deg":-34.9432983398,
        "longitude_deg":117.8089981079,
        "elevation_ft":233.0,
        "continent":"OC",
        "iso_country":"AU",
        "gps_code":"YABA",
        "iata_code":"ALH"
    },
    {
        "type":"medium_airport",
        "name":"Alice International Airport",
        "latitude_deg":27.7409000397,
        "longitude_deg":-98.0269012451,
        "elevation_ft":178.0,
        "continent":null,
        "iso_country":"US",
        "gps_code":"KALI",
        "iata_code":"ALI"
    },
    {
        "type":"medium_airport",
        "name":"Alexander Bay Airport",
        "latitude_deg":-28.575001,
        "longitude_deg":16.5333,
        "elevation_ft":98.0,
        "continent":"AF",
        "iso_country":"ZA",
        "gps_code":"FAAB",
        "iata_code":"ALJ"
    },
    {
        "type":"medium_airport",
        "name":"Villanova D'Albenga International Airport",
        "latitude_deg":44.050598,
        "longitude_deg":8.12743,
        "elevation_ft":148.0,
        "continent":"EU",
        "iso_country":"IT",
        "gps_code":"LIMG",
        "iata_code":"ALL"
    },
    {
        "type":"medium_airport",
        "name":"Alamogordo White Sands Regional Airport",
        "latitude_deg":32.8399009705,
        "longitude_deg":-105.990997314,
        "elevation_ft":4200.0,
        "continent":null,
        "iso_country":"US",
        "gps_code":"KALM",
        "iata_code":"ALM"
    },
    {
        "type":"medium_airport",
        "name":"St Louis Regional Airport",
        "latitude_deg":38.8903007507,
        "longitude_deg":-90.0459976196,
        "elevation_ft":544.0,
        "continent":null,
        "iso_country":"US",
        "gps_code":"KALN",
        "iata_code":"ALN"
    },
    {
        "type":"medium_airport",
        "name":"Waterloo Regional Airport",
        "latitude_deg":42.5570983887,
        "longitude_deg":-92.4002990723,
        "elevation_ft":873.0,
        "continent":null,
        "iso_country":"US",
        "gps_code":"KALO",
        "iata_code":"ALO"
    },
    {
        "type":"large_airport",
        "name":"Aleppo International Airport",
        "latitude_deg":36.1806983948,
        "longitude_deg":37.2243995667,
        "elevation_ft":1276.0,
        "continent":"AS",
        "iso_country":"SY",
        "gps_code":"OSAP",
        "iata_code":"ALP"
    },
    {
        "type":"small_airport",
        "name":"Alegrete Novo Airport",
        "latitude_deg":-29.8127002716,
        "longitude_deg":-55.8933982849,
        "elevation_ft":459.0,
        "continent":"SA",
        "iso_country":"BR",
        "gps_code":"SSLT",
        "iata_code":"ALQ"
    },
    {
        "type":"medium_airport",
        "name":"Alexandra Airport",
        "latitude_deg":-45.2117004395,
        "longitude_deg":169.3730010986,
        "elevation_ft":752.0,
        "continent":"OC",
        "iso_country":"NZ",
        "gps_code":"NZLX",
        "iata_code":"ALR"
    },
    {
        "type":"medium_airport",
        "name":"San Luis Valley Regional Airport\/Bergman Field",
        "latitude_deg":37.434898,
        "longitude_deg":-105.866997,
        "elevation_ft":7539.0,
        "continent":null,
        "iso_country":"US",
        "gps_code":"KALS",
        "iata_code":"ALS"
    },
    {
        "type":"small_airport",
        "name":"Alenquer Airport",
        "latitude_deg":-1.917,
        "longitude_deg":-54.7231,
        "elevation_ft":55.0,
        "continent":"SA",
        "iso_country":"BR",
        "gps_code":"SDWQ",
        "iata_code":"ALT"
    },
    {
        "type":"small_airport",
        "name":"Alula Airport",
        "latitude_deg":11.9582,
        "longitude_deg":50.748,
        "elevation_ft":6.0,
        "continent":"AF",
        "iso_country":"SO",
        "gps_code":"HCMA",
        "iata_code":"ALU"
    },
    {
        "type":"medium_airport",
        "name":"Walla Walla Regional Airport",
        "latitude_deg":46.09489822,
        "longitude_deg":-118.288002,
        "elevation_ft":1194.0,
        "continent":null,
        "iso_country":"US",
        "gps_code":"KALW",
        "iata_code":"ALW"
    },
    {
        "type":"small_airport",
        "name":"Thomas C Russell Field",
        "latitude_deg":32.9146995544,
        "longitude_deg":-85.9629974365,
        "elevation_ft":686.0,
        "continent":null,
        "iso_country":"US",
        "gps_code":"KALX",
        "iata_code":"ALX"
    },
    {
        "type":"medium_airport",
        "name":"El Nouzha Airport",
        "latitude_deg":31.1839008331,
        "longitude_deg":29.9489002228,
        "elevation_ft":-6.0,
        "continent":"AF",
        "iso_country":"EG",
        "gps_code":"HEAX",
        "iata_code":"ALY"
    },
    {
        "type":"large_airport",
        "name":"Rick Husband Amarillo International Airport",
        "latitude_deg":35.219398,
        "longitude_deg":-101.706001,
        "elevation_ft":3607.0,
        "continent":null,
        "iso_country":"US",
        "gps_code":"KAMA",
        "iata_code":"AMA"
    },
    {
        "type":"small_airport",
        "name":"Ambilobe Airport",
        "latitude_deg":-13.1884002686,
        "longitude_deg":48.9879989624,
        "elevation_ft":72.0,
        "continent":"AF",
        "iso_country":"MG",
        "gps_code":"FMNE",
        "iata_code":"AMB"
    },
    {
        "type":"small_airport",
        "name":"Am Timan Airport",
        "latitude_deg":11.0340003967,
        "longitude_deg":20.2740001678,
        "elevation_ft":1420.0,
        "continent":"AF",
        "iso_country":"TD",
        "gps_code":"FTTN",
        "iata_code":"AMC"
    },
    {
        "type":"medium_airport",
        "name":"Sardar Vallabhbhai Patel International Airport",
        "latitude_deg":23.0771999359,
        "longitude_deg":72.6346969604,
        "elevation_ft":189.0,
        "continent":"AS",
        "iso_country":"IN",
        "gps_code":"VAAH",
        "iata_code":"AMD"
    },
    {
        "type":"small_airport",
        "name":"Alto Molocue Airport",
        "latitude_deg":-15.6102777778,
        "longitude_deg":37.6813888889,
        "elevation_ft":1950.0,
        "continent":"AF",
        "iso_country":"MZ",
        "gps_code":null,
        "iata_code":"AME"
    },
    {
        "type":"small_airport",
        "name":"Ama Airport",
        "latitude_deg":-4.1011111111,
        "longitude_deg":141.67,
        "elevation_ft":145.0,
        "continent":"OC",
        "iso_country":"PG",
        "gps_code":"AYAA",
        "iata_code":"AMF"
    },
    {
        "type":"medium_airport",
        "name":"Arba Minch Airport",
        "latitude_deg":6.0393900871,
        "longitude_deg":37.5904998779,
        "elevation_ft":3901.0,
        "continent":"AF",
        "iso_country":"ET",
        "gps_code":"HAAM",
        "iata_code":"AMH"
    },
    {
        "type":"small_airport",
        "name":"Selaparang Airport",
        "latitude_deg":-8.5607099533,
        "longitude_deg":116.095001221,
        "elevation_ft":52.0,
        "continent":"AS",
        "iso_country":"ID",
        "gps_code":"WADA",
        "iata_code":"AMI"
    },
    {
        "type":"small_airport",
        "name":"Cirilo Queir\u00f3z Airport",
        "latitude_deg":-16.18389,
        "longitude_deg":-40.66722,
        "elevation_ft":640.0,
        "continent":"SA",
        "iso_country":"BR",
        "gps_code":"SNAR",
        "iata_code":"AMJ"
    },
    {
        "type":"small_airport",
        "name":"Animas Air Park",
        "latitude_deg":37.2032012939,
        "longitude_deg":-107.869003296,
        "elevation_ft":6684.0,
        "continent":null,
        "iso_country":"US",
        "gps_code":null,
        "iata_code":"AMK"
    },
    {
        "type":"large_airport",
        "name":"Queen Alia International Airport",
        "latitude_deg":31.7226009369,
        "longitude_deg":35.9931983948,
        "elevation_ft":2395.0,
        "continent":"AS",
        "iso_country":"JO",
        "gps_code":"OJAI",
        "iata_code":"AMM"
    },
    {
        "type":"small_airport",
        "name":"Gratiot Community Airport",
        "latitude_deg":43.322101593,
        "longitude_deg":-84.68800354,
        "elevation_ft":754.0,
        "continent":null,
        "iso_country":"US",
        "gps_code":"KAMN",
        "iata_code":"AMN"
    },
    {
        "type":"small_airport",
        "name":"Mao Airport",
        "latitude_deg":14.1456003189,
        "longitude_deg":15.3143997192,
        "elevation_ft":1072.0,
        "continent":"AF",
        "iso_country":"TD",
        "gps_code":"FTTU",
        "iata_code":"AMO"
    },
    {
        "type":"small_airport",
        "name":"Ampanihy Airport",
        "latitude_deg":-24.6996994019,
        "longitude_deg":44.7341995239,
        "elevation_ft":771.0,
        "continent":"AF",
        "iso_country":"MG",
        "gps_code":"FMSY",
        "iata_code":"AMP"
    },
    {
        "type":"medium_airport",
        "name":"Pattimura Airport, Ambon",
        "latitude_deg":-3.7102599144,
        "longitude_deg":128.089004517,
        "elevation_ft":33.0,
        "continent":"AS",
        "iso_country":"ID",
        "gps_code":"WAPP",
        "iata_code":"AMQ"
    },
    {
        "type":"large_airport",
        "name":"Amsterdam Airport Schiphol",
        "latitude_deg":52.308601,
        "longitude_deg":4.76389,
        "elevation_ft":-11.0,
        "continent":"EU",
        "iso_country":"NL",
        "gps_code":"EHAM",
        "iata_code":"AMS"
    },
    {
        "type":"small_airport",
        "name":"Amata Airport",
        "latitude_deg":-26.097363,
        "longitude_deg":131.202732,
        "elevation_ft":695.0,
        "continent":"OC",
        "iso_country":"AU",
        "gps_code":"YAMT",
        "iata_code":"AMT"
    },
    {
        "type":"small_airport",
        "name":"Amanab Airport",
        "latitude_deg":-3.586,
        "longitude_deg":141.214333333,
        "elevation_ft":1307.0,
        "continent":"OC",
        "iso_country":"PG",
        "gps_code":"AYAM",
        "iata_code":"AMU"
    },
    {
        "type":"medium_airport",
        "name":"Amderma Airport",
        "latitude_deg":69.7632980347,
        "longitude_deg":61.5564002991,
        "elevation_ft":13.0,
        "continent":"AS",
        "iso_country":"RU",
        "gps_code":"ULDD",
        "iata_code":"AMV"
    },
    {
        "type":"small_airport",
        "name":"Ames Municipal Airport",
        "latitude_deg":41.992001,
        "longitude_deg":-93.621803,
        "elevation_ft":956.0,
        "continent":null,
        "iso_country":"US",
        "gps_code":"KAMW",
        "iata_code":"AMW"
    },
    {
        "type":"small_airport",
        "name":"Ammaroo Airport",
        "latitude_deg":-21.7383003235,
        "longitude_deg":135.2420043945,
        "elevation_ft":null,
        "continent":"OC",
        "iso_country":"AU",
        "gps_code":"YAMM",
        "iata_code":"AMX"
    },
    {
        "type":"small_airport",
        "name":"Ambatomainty Airport",
        "latitude_deg":-17.6866666667,
        "longitude_deg":45.6238888889,
        "elevation_ft":1025.0,
        "continent":"AF",
        "iso_country":"MG",
        "gps_code":null,
        "iata_code":"AMY"
    },
    {
        "type":"medium_airport",
        "name":"Ardmore Airport",
        "latitude_deg":-37.0297012329,
        "longitude_deg":174.9730072021,
        "elevation_ft":111.0,
        "continent":"OC",
        "iso_country":"NZ",
        "gps_code":"NZAR",
        "iata_code":"AMZ"
    },
    {
        "type":"small_airport",
        "name":"Angama Airport",
        "latitude_deg":-1.27156,
        "longitude_deg":34.955513,
        "elevation_ft":6180.0,
        "continent":"AF",
        "iso_country":"KE",
        "gps_code":"HKOM",
        "iata_code":"ANA"
    },
    {
        "type":"medium_airport",
        "name":"Anniston Regional Airport",
        "latitude_deg":33.5882,
        "longitude_deg":-85.8581,
        "elevation_ft":612.0,
        "continent":null,
        "iso_country":"US",
        "gps_code":"KANB",
        "iata_code":"ANB"
    },
    {
        "type":"large_airport",
        "name":"Ted Stevens Anchorage International Airport",
        "latitude_deg":61.1744003296,
        "longitude_deg":-149.9960021973,
        "elevation_ft":152.0,
        "continent":null,
        "iso_country":"US",
        "gps_code":"PANC",
        "iata_code":"ANC"
    },
    {
        "type":"medium_airport",
        "name":"Anderson Regional Airport",
        "latitude_deg":34.4945983887,
        "longitude_deg":-82.7093963623,
        "elevation_ft":782.0,
        "continent":null,
        "iso_country":"US",
        "gps_code":"KAND",
        "iata_code":"AND"
    },
    {
        "type":"medium_airport",
        "name":"Angers-Loire Airport",
        "latitude_deg":47.560299,
        "longitude_deg":-0.312222,
        "elevation_ft":194.0,
        "continent":"EU",
        "iso_country":"FR",
        "gps_code":"LFJR",
        "iata_code":"ANE"
    },
    {
        "type":"medium_airport",
        "name":"Andr\u00e9s Sabella G\u00e1lvez International Airport",
        "latitude_deg":-23.444501,
        "longitude_deg":-70.445099,
        "elevation_ft":455.0,
        "continent":"SA",
        "iso_country":"CL",
        "gps_code":"SCFA",
        "iata_code":"ANF"
    },
    {
        "type":"medium_airport",
        "name":"Angoul\u00eame-Brie-Champniers Airport",
        "latitude_deg":45.7291984558,
        "longitude_deg":0.2214560062,
        "elevation_ft":436.0,
        "continent":"EU",
        "iso_country":"FR",
        "gps_code":"LFBU",
        "iata_code":"ANG"
    },
    {
        "type":"medium_airport",
        "name":"Aniak Airport",
        "latitude_deg":61.5816001892,
        "longitude_deg":-159.5429992676,
        "elevation_ft":88.0,
        "continent":null,
        "iso_country":"US",
        "gps_code":"PANI",
        "iata_code":"ANI"
    },
    {
        "type":"small_airport",
        "name":"Zanaga Airport",
        "latitude_deg":-2.8499999046,
        "longitude_deg":13.8170003891,
        "elevation_ft":1870.0,
        "continent":"AF",
        "iso_country":"CG",
        "gps_code":"FCBZ",
        "iata_code":"ANJ"
    },
    {
        "type":"medium_airport",
        "name":"Etimesgut Air Base",
        "latitude_deg":39.949798584,
        "longitude_deg":32.6885986328,
        "elevation_ft":2653.0,
        "continent":"AS",
        "iso_country":"TR",
        "gps_code":"LTAD",
        "iata_code":"ANK"
    },
    {
        "type":"small_airport",
        "name":"Andulo Airport",
        "latitude_deg":-11.4723,
        "longitude_deg":16.710899,
        "elevation_ft":null,
        "continent":"AF",
        "iso_country":"AO",
        "gps_code":null,
        "iata_code":"ANL"
    },
    {
        "type":"medium_airport",
        "name":"Antsirabato Airport",
        "latitude_deg":-14.9994001389,
        "longitude_deg":50.3202018738,
        "elevation_ft":20.0,
        "continent":"AF",
        "iso_country":"MG",
        "gps_code":"FMNH",
        "iata_code":"ANM"
    },
    {
        "type":"medium_airport",
        "name":"Annette Island Airport",
        "latitude_deg":55.037026,
        "longitude_deg":-131.572695,
        "elevation_ft":119.0,
        "continent":null,
        "iso_country":"US",
        "gps_code":"PANT",
        "iata_code":"ANN"
    },
    {
        "type":"small_airport",
        "name":"Angoche Airport",
        "latitude_deg":-16.1818695068,
        "longitude_deg":39.9452171326,
        "elevation_ft":121.0,
        "continent":"AF",
        "iso_country":"MZ",
        "gps_code":"FQAG",
        "iata_code":"ANO"
    },
    {
        "type":"small_airport",
        "name":"Lee Airport",
        "latitude_deg":38.942902,
        "longitude_deg":-76.568398,
        "elevation_ft":34.0,
        "continent":null,
        "iso_country":"US",
        "gps_code":"KANP",
        "iata_code":"ANP"
    },
    {
        "type":"small_airport",
        "name":"Tri State Steuben County Airport",
        "latitude_deg":41.639702,
        "longitude_deg":-85.083504,
        "elevation_ft":995.0,
        "continent":null,
        "iso_country":"US",
        "gps_code":"KANQ",
        "iata_code":"ANQ"
    },
    {
        "type":"medium_airport",
        "name":"Antwerp International Airport (Deurne)",
        "latitude_deg":51.1894,
        "longitude_deg":4.46028,
        "elevation_ft":39.0,
        "continent":"EU",
        "iso_country":"BE",
        "gps_code":"EBAW",
        "iata_code":"ANR"
    },
    {
        "type":"small_airport",
        "name":"Andahuaylas Airport",
        "latitude_deg":-13.7063999176,
        "longitude_deg":-73.350402832,
        "elevation_ft":11300.0,
        "continent":"SA",
        "iso_country":"PE",
        "gps_code":"SPHY",
        "iata_code":"ANS"
    },
    {
        "type":"medium_airport",
        "name":"V.C. Bird International Airport",
        "latitude_deg":17.1367,
        "longitude_deg":-61.792702,
        "elevation_ft":62.0,
        "continent":null,
        "iso_country":"AG",
        "gps_code":"TAPA",
        "iata_code":"ANU"
    },
    {
        "type":"medium_airport",
        "name":"Anvik Airport",
        "latitude_deg":62.646702,
        "longitude_deg":-160.190994,
        "elevation_ft":291.0,
        "continent":null,
        "iso_country":"US",
        "gps_code":"PANV",
        "iata_code":"ANV"
    },
    {
        "type":"small_airport",
        "name":"Ainsworth Regional Airport",
        "latitude_deg":42.579201,
        "longitude_deg":-99.992995,
        "elevation_ft":2589.0,
        "continent":null,
        "iso_country":"US",
        "gps_code":"KANW",
        "iata_code":"ANW"
    },
    {
        "type":"medium_airport",
        "name":"And\u00f8ya Airport",
        "latitude_deg":69.2925033569,
        "longitude_deg":16.1441993713,
        "elevation_ft":43.0,
        "continent":"EU",
        "iso_country":"NO",
        "gps_code":"ENAN",
        "iata_code":"ANX"
    },
    {
        "type":"small_airport",
        "name":"Anthony Municipal Airport",
        "latitude_deg":37.158501,
        "longitude_deg":-98.079597,
        "elevation_ft":1340.0,
        "continent":null,
        "iso_country":"US",
        "gps_code":"KANY",
        "iata_code":"ANY"
    },
    {
        "type":"small_airport",
        "name":"Angus Downs Airport",
        "latitude_deg":-25.0325,
        "longitude_deg":132.2748,
        "elevation_ft":1724.0,
        "continent":"OC",
        "iso_country":"AU",
        "gps_code":null,
        "iata_code":"ANZ"
    },
    {
        "type":"small_airport",
        "name":"Annanberg Airport",
        "latitude_deg":-4.9041666667,
        "longitude_deg":144.635833333,
        "elevation_ft":130.0,
        "continent":"OC",
        "iso_country":"PG",
        "gps_code":null,
        "iata_code":"AOB"
    },
    {
        "type":"medium_airport",
        "name":"Altenburg-Nobitz Airport",
        "latitude_deg":50.981945,
        "longitude_deg":12.506389,
        "elevation_ft":640.0,
        "continent":"EU",
        "iso_country":"DE",
        "gps_code":"EDAC",
        "iata_code":"AOC"
    },
    {
        "type":"small_airport",
        "name":"Abou-De\u00efa Airport",
        "latitude_deg":11.4773,
        "longitude_deg":19.2874,
        "elevation_ft":1592.0,
        "continent":"AF",
        "iso_country":"TD",
        "gps_code":null,
        "iata_code":"AOD"
    },
    {
        "type":"medium_airport",
        "name":"Anadolu Airport",
        "latitude_deg":39.809898,
        "longitude_deg":30.5194,
        "elevation_ft":2588.0,
        "continent":"AS",
        "iso_country":"TR",
        "gps_code":"LTBY",
        "iata_code":"AOE"
    },
    {
        "type":"medium_airport",
        "name":"Anshan Teng'ao Airport \/ Anshan Air Base",
        "latitude_deg":41.105301,
        "longitude_deg":122.853996,
        "elevation_ft":null,
        "continent":"AS",
        "iso_country":"CN",
        "gps_code":"ZYAS",
        "iata_code":"AOG"
    },
    {
        "type":"small_airport",
        "name":"Lima Allen County Airport",
        "latitude_deg":40.706902,
        "longitude_deg":-84.026703,
        "elevation_ft":975.0,
        "continent":null,
        "iso_country":"US",
        "gps_code":"KAOH",
        "iata_code":"AOH"
    },
    {
        "type":"medium_airport",
        "name":"Marche Airport",
        "latitude_deg":43.616299,
        "longitude_deg":13.3623,
        "elevation_ft":49.0,
        "continent":"EU",
        "iso_country":"IT",
        "gps_code":"LIPY",
        "iata_code":"AOI"
    },
    {
        "type":"medium_airport",
        "name":"Aomori Airport",
        "latitude_deg":40.7346992493,
        "longitude_deg":140.6909942627,
        "elevation_ft":664.0,
        "continent":"AS",
        "iso_country":"JP",
        "gps_code":"RJSA",
        "iata_code":"AOJ"
    },
    {
        "type":"medium_airport",
        "name":"Karpathos Airport",
        "latitude_deg":35.4213981628,
        "longitude_deg":27.1459999084,
        "elevation_ft":66.0,
        "continent":"EU",
        "iso_country":"GR",
        "gps_code":"LGKP",
        "iata_code":"AOK"
    },
    {
        "type":"medium_airport",
        "name":"Paso De Los Libres Airport",
        "latitude_deg":-29.6894,
        "longitude_deg":-57.1521,
        "elevation_ft":230.0,
        "continent":"SA",
        "iso_country":"AR",
        "gps_code":"SARL",
        "iata_code":"AOL"
    },
    {
        "type":"small_airport",
        "name":"Adam Airport",
        "latitude_deg":22.4919444444,
        "longitude_deg":57.3838888889,
        "elevation_ft":1075.0,
        "continent":"AS",
        "iso_country":"OM",
        "gps_code":null,
        "iata_code":"AOM"
    },
    {
        "type":"medium_airport",
        "name":"Altoona Blair County Airport",
        "latitude_deg":40.29639816,
        "longitude_deg":-78.31999969,
        "elevation_ft":1503.0,
        "continent":null,
        "iso_country":"US",
        "gps_code":"KAOO",
        "iata_code":"AOO"
    },
    {
        "type":"small_airport",
        "name":"Alferez FAP Alfredo Vladimir Sara Bauer Airport",
        "latitude_deg":-2.7961299419,
        "longitude_deg":-76.4665985107,
        "elevation_ft":728.0,
        "continent":"SA",
        "iso_country":"PE",
        "gps_code":"SPAS",
        "iata_code":"AOP"
    },
    {
        "type":"medium_airport",
        "name":"Sultan Abdul Halim Airport",
        "latitude_deg":6.1896700859,
        "longitude_deg":100.3980026245,
        "elevation_ft":15.0,
        "continent":"AS",
        "iso_country":"MY",
        "gps_code":"WMKA",
        "iata_code":"AOR"
    },
    {
        "type":"medium_airport",
        "name":"Aosta Airport",
        "latitude_deg":45.738499,
        "longitude_deg":7.36872,
        "elevation_ft":1791.0,
        "continent":"EU",
        "iso_country":"IT",
        "gps_code":"LIMW",
        "iata_code":"AOT"
    },
    {
        "type":"small_airport",
        "name":"Attopeu Airport",
        "latitude_deg":14.793056,
        "longitude_deg":107.045278,
        "elevation_ft":344.0,
        "continent":"AS",
        "iso_country":"LA",
        "gps_code":"VLAP",
        "iata_code":"AOU"
    },
    {
        "type":"medium_airport",
        "name":"Centennial Airport",
        "latitude_deg":39.57009888,
        "longitude_deg":-104.848999,
        "elevation_ft":5885.0,
        "continent":null,
        "iso_country":"US",
        "gps_code":"KAPA",
        "iata_code":"APA"
    },
    {
        "type":"small_airport",
        "name":"Apolo Airport",
        "latitude_deg":-14.7356004715,
        "longitude_deg":-68.4119033813,
        "elevation_ft":4639.0,
        "continent":"SA",
        "iso_country":"BO",
        "gps_code":"SLAP",
        "iata_code":"APB"
    },
    {
        "type":"small_airport",
        "name":"Napa County Airport",
        "latitude_deg":38.2132,
        "longitude_deg":-122.280998,
        "elevation_ft":35.0,
        "continent":null,
        "iso_country":"US",
        "gps_code":"KAPC",
        "iata_code":"APC"
    },
    {
        "type":"small_airport",
        "name":"San Juan Aposento Airport",
        "latitude_deg":-15.3538999557,
        "longitude_deg":-75.167098999,
        "elevation_ft":23.0,
        "continent":"SA",
        "iso_country":"PE",
        "gps_code":"SPAO",
        "iata_code":"APE"
    },
    {
        "type":"medium_airport",
        "name":"Naples Municipal Airport",
        "latitude_deg":26.1525993347,
        "longitude_deg":-81.7752990723,
        "elevation_ft":8.0,
        "continent":null,
        "iso_country":"US",
        "gps_code":"KAPF",
        "iata_code":"APF"
    },
    {
        "type":"medium_airport",
        "name":"Phillips Army Air Field",
        "latitude_deg":39.466202,
        "longitude_deg":-76.1688,
        "elevation_ft":57.0,
        "continent":null,
        "iso_country":"US",
        "gps_code":"KAPG",
        "iata_code":"APG"
    },
    {
        "type":"small_airport",
        "name":"A P Hill AAF (Fort A P Hill) Airport",
        "latitude_deg":38.068902,
        "longitude_deg":-77.318298,
        "elevation_ft":220.0,
        "continent":null,
        "iso_country":"US",
        "gps_code":"KAPH",
        "iata_code":"APH"
    },
    {
        "type":"medium_airport",
        "name":"Gomez Nino Apiay Air Base",
        "latitude_deg":4.07607,
        "longitude_deg":-73.5627,
        "elevation_ft":1207.0,
        "continent":"SA",
        "iso_country":"CO",
        "gps_code":"SKAP",
        "iata_code":"API"
    },
    {
        "type":"small_airport",
        "name":"Apataki Airport",
        "latitude_deg":-15.5736,
        "longitude_deg":-146.414993,
        "elevation_ft":8.0,
        "continent":"OC",
        "iso_country":"PF",
        "gps_code":"NTGD",
        "iata_code":"APK"
    },
    {
        "type":"medium_airport",
        "name":"Nampula Airport",
        "latitude_deg":-15.1056003571,
        "longitude_deg":39.2817993164,
        "elevation_ft":1444.0,
        "continent":"AF",
        "iso_country":"MZ",
        "gps_code":"FQNP",
        "iata_code":"APL"
    },
    {
        "type":"medium_airport",
        "name":"Alpena County Regional Airport",
        "latitude_deg":45.0780983,
        "longitude_deg":-83.56030273,
        "elevation_ft":690.0,
        "continent":null,
        "iso_country":"US",
        "gps_code":"KAPN",
        "iata_code":"APN"
    },
    {
        "type":"medium_airport",
        "name":"Antonio Roldan Betancourt Airport",
        "latitude_deg":7.81196,
        "longitude_deg":-76.7164,
        "elevation_ft":46.0,
        "continent":"SA",
        "iso_country":"CO",
        "gps_code":"SKLC",
        "iata_code":"APO"
    },
    {
        "type":"small_airport",
        "name":"Asapa Airport",
        "latitude_deg":-8.9791666667,
        "longitude_deg":148.103611111,
        "elevation_ft":1930.0,
        "continent":"OC",
        "iso_country":"PG",
        "gps_code":null,
        "iata_code":"APP"
    },
    {
        "type":"small_airport",
        "name":"Arapiraca Airport",
        "latitude_deg":-9.7753601074,
        "longitude_deg":-36.6291999817,
        "elevation_ft":886.0,
        "continent":"SA",
        "iso_country":"BR",
        "gps_code":"SNAL",
        "iata_code":"APQ"
    },
    {
        "type":"small_airport",
        "name":"April River Airport",
        "latitude_deg":-4.6766666667,
        "longitude_deg":142.540138889,
        "elevation_ft":220.0,
        "continent":"OC",
        "iso_country":"PG",
        "gps_code":"AYPE",
        "iata_code":"APR"
    },
    {
        "type":"small_airport",
        "name":"An\u00e1polis Airport",
        "latitude_deg":-16.3623008728,
        "longitude_deg":-48.9271011353,
        "elevation_ft":3648.0,
        "continent":"SA",
        "iso_country":"BR",
        "gps_code":"SWNS",
        "iata_code":"APS"
    },
    {
        "type":"small_airport",
        "name":"Marion County Brown Field",
        "latitude_deg":35.060699,
        "longitude_deg":-85.585297,
        "elevation_ft":641.0,
        "continent":null,
        "iso_country":"US",
        "gps_code":"KAPT",
        "iata_code":"APT"
    },
    {
        "type":"small_airport",
        "name":"Captain Jo\u00e3o Busse Airport",
        "latitude_deg":-23.609099,
        "longitude_deg":-51.384301,
        "elevation_ft":2625.0,
        "continent":"SA",
        "iso_country":"BR",
        "gps_code":"SSAP",
        "iata_code":"APU"
    },
    {
        "type":"small_airport",
        "name":"Apple Valley Airport",
        "latitude_deg":34.5752983093,
        "longitude_deg":-117.185997009,
        "elevation_ft":3062.0,
        "continent":null,
        "iso_country":"US",
        "gps_code":"KAPV",
        "iata_code":"APV"
    },
    {
        "type":"medium_airport",
        "name":"Faleolo International Airport",
        "latitude_deg":-13.8299999237,
        "longitude_deg":-172.0079956055,
        "elevation_ft":58.0,
        "continent":"OC",
        "iso_country":"WS",
        "gps_code":"NSFA",
        "iata_code":"APW"
    },
    {
        "type":"small_airport",
        "name":"Arapongas Airport",
        "latitude_deg":-23.3529,
        "longitude_deg":-51.491699,
        "elevation_ft":2599.0,
        "continent":"SA",
        "iso_country":"BR",
        "gps_code":"SSOG",
        "iata_code":"APX"
    },
    {
        "type":"small_airport",
        "name":"Alto Parna\u00edba Airport",
        "latitude_deg":-9.0836105347,
        "longitude_deg":-45.9505577087,
        "elevation_ft":968.0,
        "continent":"SA",
        "iso_country":"BR",
        "gps_code":"SNAI",
        "iata_code":"APY"
    },
    {
        "type":"medium_airport",
        "name":"Zapala Airport",
        "latitude_deg":-38.975498,
        "longitude_deg":-70.113602,
        "elevation_ft":3330.0,
        "continent":"SA",
        "iso_country":"AR",
        "gps_code":"SAHZ",
        "iata_code":"APZ"
    },
    {
        "type":"medium_airport",
        "name":"Araraquara Airport",
        "latitude_deg":-21.812,
        "longitude_deg":-48.132999,
        "elevation_ft":2334.0,
        "continent":"SA",
        "iso_country":"BR",
        "gps_code":"SBAQ",
        "iata_code":"AQA"
    },
    {
        "type":"small_airport",
        "name":"Quich\u00e9 Airport",
        "latitude_deg":15.0122,
        "longitude_deg":-91.150597,
        "elevation_ft":6631.0,
        "continent":null,
        "iso_country":"GT",
        "gps_code":"MGQC",
        "iata_code":"AQB"
    },
    {
        "type":"medium_airport",
        "name":"Anqing Tianzhushan Airport",
        "latitude_deg":30.582199,
        "longitude_deg":117.050003,
        "elevation_ft":null,
        "continent":"AS",
        "iso_country":"CN",
        "gps_code":"ZSAQ",
        "iata_code":"AQG"
    },
    {
        "type":"medium_airport",
        "name":"Al Qaisumah\/Hafr Al Batin Airport",
        "latitude_deg":28.335199,
        "longitude_deg":46.125099,
        "elevation_ft":1174.0,
        "continent":"AS",
        "iso_country":"SA",
        "gps_code":"OEPA",
        "iata_code":"AQI"
    },